{
"type": "FeatureCollection",
"name": "pilares_2026",
"crs": { "type": "name", "properties": { "name": "urn:ogc:def:crs:OGC:1.3:CRS84" } },
"features": [
{ "type": "Feature", "properties": { "nombre": "100 Metros", "alcaldia": "Gustavo A. Madero", "direccion": "Av Cien Metros y Anillo Periferico S/N , Santiago Atepetlac", "latitud": 19.526523, "longitud": -99.158897, "horario": "De 09:00 a 19:00" }, "geometry": { "type": "Point", "coordinates": [ -99.158897, 19.526523 ] } },
{ "type": "Feature", "properties": { "nombre": "16 De Septiembre", "alcaldia": "Xochimilco", "direccion": "Cruce de Anillo Periferico y Av. 16 de Septiembre S/N A, Santa María Tepepan", "latitud": 19.280984, "longitud": -99.13733, "horario": "De 09:00 a 19:00" }, "geometry": { "type": "Point", "coordinates": [ -99.13733, 19.280984 ] } },
{ "type": "Feature", "properties": { "nombre": "20 De Noviembre", "alcaldia": "Venustiano Carranza", "direccion": "Avenida Gran Canal s/n 1 , 5to TRAMO 20 DE NOVIEMBRE", "latitud": 19.447458, "longitud": -99.103176, "horario": "De 09:00 a 19:00" }, "geometry": { "type": "Point", "coordinates": [ -99.103176, 19.447458 ] } },
{ "type": "Feature", "properties": { "nombre": "8 De Agosto", "alcaldia": "Benito Juárez", "direccion": "Río Becerra s/n , 8 de agosto", "latitud": 19.394845, "longitud": -99.187943, "horario": "De 09:00 a 19:00" }, "geometry": { "type": "Point", "coordinates": [ -99.187943, 19.394845 ] } },
{ "type": "Feature", "properties": { "nombre": "Acahualtepec", "alcaldia": "Iztapalapa", "direccion": "Calle Colorín s/n, Colonia 1 , Santiago Acahualtepec", "latitud": 19.346043, "longitud": -99.008134, "horario": "De 09:00 a 19:00" }, "geometry": { "type": "Point", "coordinates": [ -99.008134, 19.346043 ] } },
{ "type": "Feature", "properties": { "nombre": "Acuexcomatl", "alcaldia": "Xochimilco", "direccion": "AVENIDA AÑO DE JUAREZ 9700 , SAN LUIS TLAXIALTEMALCO", "latitud": 19.259805, "longitud": -99.028139, "horario": "De 09:00 a 19:00" }, "geometry": { "type": "Point", "coordinates": [ -99.028139, 19.259805 ] } },
{ "type": "Feature", "properties": { "nombre": "Adela Salazar", "alcaldia": "Iztapalapa", "direccion": "CALZADA ERMITA IZTAPALAPA Y CALZADA IGNACIO ZARAGOZA  S/N 1 , LOMAS DE ZARAGOZA", "latitud": 19.358487, "longitud": -98.999928, "horario": "De 09:00 a 19:00" }, "geometry": { "type": "Point", "coordinates": [ -98.999928, 19.358487 ] } },
{ "type": "Feature", "properties": { "nombre": "Adolfo Lopez Mateos", "alcaldia": "Venustiano Carranza", "direccion": "EDUARDO BUSTAMANTE 102 , ADOLFO LOPEZ MATEOS", "latitud": 19.421814, "longitud": -99.071654, "horario": "De 09:00 a 20:00" }, "geometry": { "type": "Point", "coordinates": [ -99.071654, 19.421814 ] } },
{ "type": "Feature", "properties": { "nombre": "Agrícola Pantitlán", "alcaldia": "Iztacalco", "direccion": "UNO S/N , AGRÍCOLA PANTITLÁN", "latitud": 19.415513, "longitud": -99.068339, "horario": "De 09:00 a 19:00" }, "geometry": { "type": "Point", "coordinates": [ -99.068339, 19.415513 ] } },
{ "type": "Feature", "properties": { "nombre": "Ahualapa", "alcaldia": "Xochimilco", "direccion": "Calle Ahualapa s/n 1 , Santa Cruz Acalpixca", "latitud": 19.246994, "longitud": -99.070081, "horario": "De 09:00 a 19:00" }, "geometry": { "type": "Point", "coordinates": [ -99.070081, 19.246994 ] } },
{ "type": "Feature", "properties": { "nombre": "Ali Chumacero", "alcaldia": "Gustavo A. Madero", "direccion": "GUILLERMO MASSIEU HELGUERA 150 , La Purisima", "latitud": 19.512209, "longitud": -99.139862, "horario": "De 09:00 a 19:00" }, "geometry": { "type": "Point", "coordinates": [ -99.139862, 19.512209 ] } },
{ "type": "Feature", "properties": { "nombre": "Álvaro Obregón", "alcaldia": "Iztapalapa", "direccion": "Sin dato 1 , Alvaro Obregon", "latitud": 19.37269, "longitud": -99.036078, "horario": "De 09:00 a 19:00" }, "geometry": { "type": "Point", "coordinates": [ -99.036078, 19.37269 ] } },
{ "type": "Feature", "properties": { "nombre": "Amparo Ochoa", "alcaldia": "Tlalpan", "direccion": "Chicoasen s/n 1 , Lomas de Padierna", "latitud": 19.29118, "longitud": -99.23003, "horario": "De 09:00 a 19:00" }, "geometry": { "type": "Point", "coordinates": [ -99.23003, 19.29118 ] } },
{ "type": "Feature", "properties": { "nombre": "Ampliación Providencia", "alcaldia": "Gustavo A. Madero", "direccion": "Volcán San Andrés Tuxtla 63 , Ampliación Providencia", "latitud": 19.478828, "longitud": -99.070163, "horario": "De 09:00 a 19:00" }, "geometry": { "type": "Point", "coordinates": [ -99.070163, 19.478828 ] } },
{ "type": "Feature", "properties": { "nombre": "Ana Bolena", "alcaldia": "Tláhuac", "direccion": "Calle Ana Bolena 270 , La Nopalera", "latitud": 19.29239, "longitud": -99.054667, "horario": "De 09:00 a 19:00" }, "geometry": { "type": "Point", "coordinates": [ -99.054667, 19.29239 ] } },
{ "type": "Feature", "properties": { "nombre": "Antonio Helguera", "alcaldia": "Benito Juárez", "direccion": "ANDREA DEL CASTANGOS/N 1 , Santa Maria Nonoalco", "latitud": 19.383487, "longitud": -99.187541, "horario": "De 09:00 a 19:00" }, "geometry": { "type": "Point", "coordinates": [ -99.187541, 19.383487 ] } },
{ "type": "Feature", "properties": { "nombre": "Apatlaco", "alcaldia": "Iztapalapa", "direccion": "Avenida Canal de Apatlaco 227 , N/D", "latitud": 19.381758, "longitud": -99.114822, "horario": "De 09:00 a 19:00" }, "geometry": { "type": "Point", "coordinates": [ -99.114822, 19.381758 ] } },
{ "type": "Feature", "properties": { "nombre": "Aragon Ii", "alcaldia": "Gustavo A. Madero", "direccion": "EJE 3 NORTE AVENIDA 506S/N 1 , N/D", "latitud": 19.454409, "longitud": -99.085515, "horario": "De 09:00 a 19:00" }, "geometry": { "type": "Point", "coordinates": [ -99.085515, 19.454409 ] } },
{ "type": "Feature", "properties": { "nombre": "Aragon Vi", "alcaldia": "Gustavo A. Madero", "direccion": "Avenida 414 s/n 1 , N/D", "latitud": 19.466659, "longitud": -99.065717, "horario": "De 09:00 a 19:00" }, "geometry": { "type": "Point", "coordinates": [ -99.065717, 19.466659 ] } },
{ "type": "Feature", "properties": { "nombre": "Aragon Vii", "alcaldia": "Gustavo A. Madero", "direccion": "Calle 414-A s/n 1 , N/D", "latitud": 19.471326, "longitud": -99.075168, "horario": "De 09:00 a 19:00" }, "geometry": { "type": "Point", "coordinates": [ -99.075168, 19.471326 ] } },
{ "type": "Feature", "properties": { "nombre": "Arbol Del Conocimiento", "alcaldia": "Álvaro Obregón", "direccion": "LUIS G. URBINA S/N , LOMAS DE BECERRA", "latitud": 19.384272, "longitud": -99.222057, "horario": "De 09:00 a 19:00" }, "geometry": { "type": "Point", "coordinates": [ -99.222057, 19.384272 ] } },
{ "type": "Feature", "properties": { "nombre": "Arcoíris", "alcaldia": "Iztapalapa", "direccion": "Calle Humberto G. Tamayo s/n 1 , N/D", "latitud": 19.377970469665204, "longitud": -99.04792719643757, "horario": "De 09:00 a 19:00" }, "geometry": { "type": "Point", "coordinates": [ -99.04792719643757, 19.377970469665204 ] } },
{ "type": "Feature", "properties": { "nombre": "Atlampa", "alcaldia": "Cuauhtémoc", "direccion": "CERRADA DE CEDRO 1 , ATLAMPA", "latitud": 19.460463, "longitud": -99.160073, "horario": "De 09:00 a 19:00" }, "geometry": { "type": "Point", "coordinates": [ -99.160073, 19.460463 ] } },
{ "type": "Feature", "properties": { "nombre": "Avenida Del Taller", "alcaldia": "Venustiano Carranza", "direccion": "EJE 3 ORIENTE FRANCISCO DEL PASO Y TRONCOSO Y AVENIDA DEL TALLER S/N , JARDIN BALBUENA", "latitud": 19.41364, "longitud": -99.113043, "horario": "De 09:00 a 19:00" }, "geometry": { "type": "Point", "coordinates": [ -99.113043, 19.41364 ] } },
{ "type": "Feature", "properties": { "nombre": "Bambú", "alcaldia": "Iztapalapa", "direccion": "CALLE 1 LT. 16 Y LT. 101 , LOMAS DE LA ESTANCIA", "latitud": 19.340415, "longitud": -99.005283, "horario": "De 09:00 a 19:00" }, "geometry": { "type": "Point", "coordinates": [ -99.005283, 19.340415 ] } },
{ "type": "Feature", "properties": { "nombre": "Barrio Norte", "alcaldia": "Álvaro Obregón", "direccion": "CERRADA ALLENDE S/N , BARRIO NORTE", "latitud": 19.378327, "longitud": -99.206177, "horario": "De 09:00 a 19:00" }, "geometry": { "type": "Point", "coordinates": [ -99.206177, 19.378327 ] } },
{ "type": "Feature", "properties": { "nombre": "Belen De Las Flores", "alcaldia": "Álvaro Obregón", "direccion": "BELEN S/N , BELEN DE LAS FLORES", "latitud": 19.396861, "longitud": -99.217406, "horario": "De 09:00 a 19:00" }, "geometry": { "type": "Point", "coordinates": [ -99.217406, 19.396861 ] } },
{ "type": "Feature", "properties": { "nombre": "Belvedere", "alcaldia": "Tlalpan", "direccion": "PELOPONESO 111 LT. 25 Y 26, BELVEDERE AJUSCO", "latitud": 19.267367, "longitud": -99.226862, "horario": "De 09:00 a 19:00" }, "geometry": { "type": "Point", "coordinates": [ -99.226862, 19.267367 ] } },
{ "type": "Feature", "properties": { "nombre": "Benemérito De Las Américas", "alcaldia": "Gustavo A. Madero", "direccion": "VICENTE RIVA PALACIO S/N , BENITO JUAREZ", "latitud": 19.535014, "longitud": -99.138449, "horario": "De 09:00 a 19:00" }, "geometry": { "type": "Point", "coordinates": [ -99.138449, 19.535014 ] } },
{ "type": "Feature", "properties": { "nombre": "Benita Galeana", "alcaldia": "Gustavo A. Madero", "direccion": "AVENIDA CANAL DEL DESAGÜE 1 , NUEVA TENOCHTITLAN", "latitud": 19.455286, "longitud": -99.100512, "horario": "De 09:00 a 19:00" }, "geometry": { "type": "Point", "coordinates": [ -99.100512, 19.455286 ] } },
{ "type": "Feature", "properties": { "nombre": "Benito Juarez", "alcaldia": "Cuajimalpa de Morelos", "direccion": "AVENIDA DE LAS TORRES 1 1 60, LOMA DEL PADRE", "latitud": 19.348256, "longitud": -99.30927, "horario": "De 09:00 a 19:00" }, "geometry": { "type": "Point", "coordinates": [ -99.30927, 19.348256 ] } },
{ "type": "Feature", "properties": { "nombre": "Benito Juárez Y El Liberalismo Mexicano", "alcaldia": "Cuauhtémoc", "direccion": "Eje 2 poniente Monterrey 206 , Roma Norte", "latitud": 19.412805, "longitud": -99.162793, "horario": "De 09:00 a 19:00" }, "geometry": { "type": "Point", "coordinates": [ -99.162793, 19.412805 ] } },
{ "type": "Feature", "properties": { "nombre": "Bodoquepa", "alcaldia": "Xochimilco", "direccion": "Callejon 4 Bodoquepa s/n 1 , La Asunción", "latitud": 19.268596, "longitud": -99.100267, "horario": "De 09:00 a 19:00" }, "geometry": { "type": "Point", "coordinates": [ -99.100267, 19.268596 ] } },
{ "type": "Feature", "properties": { "nombre": "Boleo", "alcaldia": "Cuauhtémoc", "direccion": "Ferrocarril Hidalgo S/N , Valle Gomez", "latitud": 19.457157, "longitud": -99.124002, "horario": "De 09:00 a 19:00" }, "geometry": { "type": "Point", "coordinates": [ -99.124002, 19.457157 ] } },
{ "type": "Feature", "properties": { "nombre": "Bosque De Aragón", "alcaldia": "Gustavo A. Madero", "direccion": "FRACCION DE TERRENO EN EL BOSQUE DE SAN JUAN DE ARAGON SITO EN AVENIDA 510S/N 1 , N/D", "latitud": 19.463579, "longitud": -99.078888, "horario": "De 09:00 a 19:00" }, "geometry": { "type": "Point", "coordinates": [ -99.078888, 19.463579 ] } },
{ "type": "Feature", "properties": { "nombre": "Bosques", "alcaldia": "Tlalpan", "direccion": "SABINOMZ LT. 1 178 , Bosques de Pedregal", "latitud": 19.271312, "longitud": -99.237647, "horario": "De 09:00 a 19:00" }, "geometry": { "type": "Point", "coordinates": [ -99.237647, 19.271312 ] } },
{ "type": "Feature", "properties": { "nombre": "Bosques Ii Sección", "alcaldia": "Álvaro Obregón", "direccion": "Camino Real a Toluca 1 , BOSQUES 2A SECCION", "latitud": 19.392165, "longitud": -99.19913, "horario": "De 09:00 a 19:00" }, "geometry": { "type": "Point", "coordinates": [ -99.19913, 19.392165 ] } },
{ "type": "Feature", "properties": { "nombre": "Bosques Metropolitana", "alcaldia": "Tlalpan", "direccion": "Avenida Bosques s/n 1 , N/D", "latitud": 19.270693, "longitud": -99.243396, "horario": "De 09:00 a 19:00" }, "geometry": { "type": "Point", "coordinates": [ -99.243396, 19.270693 ] } },
{ "type": "Feature", "properties": { "nombre": "Calmecac", "alcaldia": "Iztapalapa", "direccion": "Avenida Valle de México s/n 1 , Miravalles", "latitud": 19.334029, "longitud": -98.996957, "horario": "De 09:00 a 19:00" }, "geometry": { "type": "Point", "coordinates": [ -98.996957, 19.334029 ] } },
{ "type": "Feature", "properties": { "nombre": "Candelaria", "alcaldia": "Venustiano Carranza", "direccion": "Avenida Congreso de la Unión s/n 1 , 10 de Mayo", "latitud": 19.4322, "longitud": -99.119937, "horario": "De 09:00 a 19:00" }, "geometry": { "type": "Point", "coordinates": [ -99.119937, 19.4322 ] } },
{ "type": "Feature", "properties": { "nombre": "Candelaria Ticoman", "alcaldia": "Gustavo A. Madero", "direccion": "INSPECTORES DE LA LUZ 7 5, Candelaria Ticoman", "latitud": 19.522741, "longitud": -99.132439, "horario": "De 09:00 a 19:00" }, "geometry": { "type": "Point", "coordinates": [ -99.132439, 19.522741 ] } },
{ "type": "Feature", "properties": { "nombre": "Caneguín", "alcaldia": "Miguel Hidalgo", "direccion": "LAGO CANEGUIN S/N , ARGENTINA ANTIGUA", "latitud": 19.454784, "longitud": -99.205124, "horario": "De 09:00 a 19:00" }, "geometry": { "type": "Point", "coordinates": [ -99.205124, 19.454784 ] } },
{ "type": "Feature", "properties": { "nombre": "Carlos Monsiváis", "alcaldia": "Benito Juárez", "direccion": "Eje 7 A sur avenida General Emiliano Zapata s/n 1 , N/D", "latitud": 19.364258, "longitud": -99.142814, "horario": "De 09:00 a 19:00" }, "geometry": { "type": "Point", "coordinates": [ -99.142814, 19.364258 ] } },
{ "type": "Feature", "properties": { "nombre": "Carlota Botey", "alcaldia": "Iztapalapa", "direccion": "Verbena s/n , Los Angeles", "latitud": 19.341027, "longitud": -99.066313, "horario": "De 09:00 a 19:00" }, "geometry": { "type": "Point", "coordinates": [ -99.066313, 19.341027 ] } },
{ "type": "Feature", "properties": { "nombre": "Carmen Serdán", "alcaldia": "Coyoacán", "direccion": "Calzada de la virgen s/n 1 , Carmen Serdan", "latitud": 19.320678, "longitud": -99.112989, "horario": "De 09:00 a 19:00" }, "geometry": { "type": "Point", "coordinates": [ -99.112989, 19.320678 ] } },
{ "type": "Feature", "properties": { "nombre": "Casa Amarilla", "alcaldia": "Miguel Hidalgo", "direccion": "Avenida Parque Lira 94 1 , N/D", "latitud": 19.406319, "longitud": -99.18928, "horario": "De 09:00 a 19:00" }, "geometry": { "type": "Point", "coordinates": [ -99.18928, 19.406319 ] } },
{ "type": "Feature", "properties": { "nombre": "Casa Del Pueblo", "alcaldia": "Iztapalapa", "direccion": "CALZADA GENERAL IGNACION ZARAGOZA S/N , UNIDAD HABITACIONAL ERMITA IZTAPALAPA", "latitud": 19.364042, "longitud": -99.002005, "horario": "De 09:00 a 19:00" }, "geometry": { "type": "Point", "coordinates": [ -99.002005, 19.364042 ] } },
{ "type": "Feature", "properties": { "nombre": "Castillo Chico", "alcaldia": "Gustavo A. Madero", "direccion": "1ERA CERRADA CHIMALPOPOCAZ-7 MZ. 35 LT. 23 1 , N/D", "latitud": 19.539923, "longitud": -99.134166, "horario": "De 09:00 a 19:00" }, "geometry": { "type": "Point", "coordinates": [ -99.134166, 19.539923 ] } },
{ "type": "Feature", "properties": { "nombre": "Centenario", "alcaldia": "Gustavo A. Madero", "direccion": "CENTENARIO Y ANILLO PERIFERICO RIO DE LOS REMEDIOS S/NCENTENARIO Y ANILLO PERIFERICO RIO DE LOS REMEDIOS S/N , JUAN GONZALEZ ROMERO", "latitud": 19.509094, "longitud": -99.090721, "horario": "De 09:00 a 19:00" }, "geometry": { "type": "Point", "coordinates": [ -99.090721, 19.509094 ] } },
{ "type": "Feature", "properties": { "nombre": "Central De Abastos", "alcaldia": "Iztapalapa", "direccion": "TOLTECAS PROLONGACION S/N 1 , CENTRAL DE ABASTOS (SAN JOSE)", "latitud": 19.373836, "longitud": -99.099146, "horario": "De 09:00 a 19:00" }, "geometry": { "type": "Point", "coordinates": [ -99.099146, 19.373836 ] } },
{ "type": "Feature", "properties": { "nombre": "Central De Abastos-Productores", "alcaldia": "Iztapalapa", "direccion": "Subasta y Productores s/n 1 , N/D", "latitud": 19.370155, "longitud": -99.088601, "horario": "De 09:00 a 19:00" }, "geometry": { "type": "Point", "coordinates": [ -99.088601, 19.370155 ] } },
{ "type": "Feature", "properties": { "nombre": "Cerro Azúl", "alcaldia": "Iztapalapa", "direccion": "CERRO AZUL 95 c 4, BUENAVISTA", "latitud": 19.32605, "longitud": -99.02776, "horario": "De 09:00 a 19:00" }, "geometry": { "type": "Point", "coordinates": [ -99.02776, 19.32605 ] } },
{ "type": "Feature", "properties": { "nombre": "Cerro De La Estrella", "alcaldia": "Iztapalapa", "direccion": "AVENIDA CHOCOLIN 40 , PARAJE SAN JUAN (SAN JUAN CERRO)", "latitud": 19.345443, "longitud": -99.081523, "horario": "De 09:00 a 19:00" }, "geometry": { "type": "Point", "coordinates": [ -99.081523, 19.345443 ] } },
{ "type": "Feature", "properties": { "nombre": "Ceylan", "alcaldia": "Azcapotzalco", "direccion": "BOULEVARD FERROCARRILESS/N 1 , N/D", "latitud": 19.477792, "longitud": -99.16307, "horario": "De 09:00 a 19:00" }, "geometry": { "type": "Point", "coordinates": [ -99.16307, 19.477792 ] } },
{ "type": "Feature", "properties": { "nombre": "Chabacano", "alcaldia": "Cuauhtémoc", "direccion": "CRUCE DE EJE 3 SUR, JOSE PEON CONTRERAS Y SAN ANTONIO ABAD 1 , OBRERA Y ALGARIN", "latitud": 19.407909, "longitud": -99.136115, "horario": "De 09:00 a 19:00" }, "geometry": { "type": "Point", "coordinates": [ -99.136115, 19.407909 ] } },
{ "type": "Feature", "properties": { "nombre": "Chalma De Guadalupe", "alcaldia": "Gustavo A. Madero", "direccion": "Calle Morelos s/n 1 , Chalma de Guadalupe", "latitud": 19.545953, "longitud": -99.152363, "horario": "De 09:00 a 19:00" }, "geometry": { "type": "Point", "coordinates": [ -99.152363, 19.545953 ] } },
{ "type": "Feature", "properties": { "nombre": "Chamontoya", "alcaldia": "Álvaro Obregón", "direccion": "AZUCENA LT. 20 , LOMAS DE CHAMONTOYA", "latitud": 19.317983, "longitud": -99.26821, "horario": "De 09:00 a 19:00" }, "geometry": { "type": "Point", "coordinates": [ -99.26821, 19.317983 ] } },
{ "type": "Feature", "properties": { "nombre": "Chichicaspatl", "alcaldia": "Tlalpan", "direccion": "PLANCITO VIEJOS/N 1 , N/D", "latitud": 19.277805, "longitud": -99.242684, "horario": "De 09:00 a 19:00" }, "geometry": { "type": "Point", "coordinates": [ -99.242684, 19.277805 ] } },
{ "type": "Feature", "properties": { "nombre": "Chichicaspatl Ii", "alcaldia": "Tlalpan", "direccion": "CALLE JACARANDA S/N 1 , VALLE VERDE", "latitud": 19.27456, "longitud": -99.242329, "horario": "De 09:00 a 19:00" }, "geometry": { "type": "Point", "coordinates": [ -99.242329, 19.27456 ] } },
{ "type": "Feature", "properties": { "nombre": "Chimalpa", "alcaldia": "Cuajimalpa de Morelos", "direccion": "PORFIRIO DIAZ S/N , SAN PABLO CHIMALPA (PUEBLO)", "latitud": 19.353062, "longitud": -99.317566, "horario": "De 09:00 a 19:00" }, "geometry": { "type": "Point", "coordinates": [ -99.317566, 19.353062 ] } },
{ "type": "Feature", "properties": { "nombre": "Cocodrilo", "alcaldia": "Tláhuac", "direccion": "Cocodrilo 67 , Los Olivos", "latitud": 19.301866, "longitud": -99.059617, "horario": "De 09:00 a 19:00" }, "geometry": { "type": "Point", "coordinates": [ -99.059617, 19.301866 ] } },
{ "type": "Feature", "properties": { "nombre": "Coltongo", "alcaldia": "Azcapotzalco", "direccion": "Bahia Magdalena 1 , Coltongo", "latitud": 19.483099, "longitud": -99.153646, "horario": "De 09:00 a 19:00" }, "geometry": { "type": "Point", "coordinates": [ -99.153646, 19.483099 ] } },
{ "type": "Feature", "properties": { "nombre": "Compositores Mexicanos", "alcaldia": "Gustavo A. Madero", "direccion": "FOLKLORICOS MEXICANOSS/N 1 , N/D", "latitud": 19.566925, "longitud": -99.139313, "horario": "De 09:00 a 19:00" }, "geometry": { "type": "Point", "coordinates": [ -99.139313, 19.566925 ] } },
{ "type": "Feature", "properties": { "nombre": "Constitución De 1917", "alcaldia": "Iztapalapa", "direccion": "Bajo Puente Calzada Ermita Iztapalapa y Canal de Garay S/N , Constitución de 1917", "latitud": 19.344335, "longitud": -99.061111, "horario": "De 09:00 a 19:00" }, "geometry": { "type": "Point", "coordinates": [ -99.061111, 19.344335 ] } },
{ "type": "Feature", "properties": { "nombre": "Contadero", "alcaldia": "Cuajimalpa de Morelos", "direccion": "PROLONGACION 16 DE SEPTIEMBRES/N 1 , N/D", "latitud": 19.348108, "longitud": -99.302689, "horario": "De 09:00 a 19:00" }, "geometry": { "type": "Point", "coordinates": [ -99.302689, 19.348108 ] } },
{ "type": "Feature", "properties": { "nombre": "Cooperemos Pueblo", "alcaldia": "Iztapalapa", "direccion": "CUITLAHUAC S/N 1 , SANTA CRUZ MEYEHUALCO (PUEBLO)", "latitud": 19.341289, "longitud": -99.040762, "horario": "De 09:00 a 19:00" }, "geometry": { "type": "Point", "coordinates": [ -99.040762, 19.341289 ] } },
{ "type": "Feature", "properties": { "nombre": "Copil", "alcaldia": "Venustiano Carranza", "direccion": "Calle Chimalhuacan s/n 1 , N/D", "latitud": 19.437222, "longitud": -99.085688, "horario": "De 09:00 a 19:00" }, "geometry": { "type": "Point", "coordinates": [ -99.085688, 19.437222 ] } },
{ "type": "Feature", "properties": { "nombre": "Cristina Pacheco", "alcaldia": "Tlalpan", "direccion": "Calle Lacandones s/n 1 , Pedregal de las Aguilas", "latitud": 19.272084, "longitud": -99.176214, "horario": "De 09:00 a 19:00" }, "geometry": { "type": "Point", "coordinates": [ -99.176214, 19.272084 ] } },
{ "type": "Feature", "properties": { "nombre": "Cuajimalpa", "alcaldia": "Cuajimalpa de Morelos", "direccion": "Guillermo Prieto s/n 1 , CUAJIMALPA", "latitud": 19.357814, "longitud": -99.299384, "horario": "De 09:00 a 19:00" }, "geometry": { "type": "Point", "coordinates": [ -99.299384, 19.357814 ] } },
{ "type": "Feature", "properties": { "nombre": "Cuchilla De Padierna", "alcaldia": "Tlalpan", "direccion": "CHACHULTUN 1 10, CUCHILLA DE PADIERNA", "latitud": 19.276356, "longitud": -99.216241, "horario": "De 09:00 a 19:00" }, "geometry": { "type": "Point", "coordinates": [ -99.216241, 19.276356 ] } },
{ "type": "Feature", "properties": { "nombre": "Cuchilla Del Tesoro", "alcaldia": "Gustavo A. Madero", "direccion": "AVENIDA NORTE 1S/N 1 , N/D", "latitud": 19.44844, "longitud": -99.052776, "horario": "De 09:00 a 19:00" }, "geometry": { "type": "Point", "coordinates": [ -99.052776, 19.44844 ] } },
{ "type": "Feature", "properties": { "nombre": "David Cervantes", "alcaldia": "Tlalpan", "direccion": "Avenida Texcalatlaco s/n 1 , Plan de Ayala", "latitud": 19.239148, "longitud": -99.150139, "horario": "De 09:00 a 19:00" }, "geometry": { "type": "Point", "coordinates": [ -99.150139, 19.239148 ] } },
{ "type": "Feature", "properties": { "nombre": "Deportivo Xóchitl", "alcaldia": "Tlalpan", "direccion": "Calle Corregidora s/n 1 , Miguel Hidalgo", "latitud": 19.290541, "longitud": -99.18248, "horario": "De 09:00 a 19:00" }, "geometry": { "type": "Point", "coordinates": [ -99.18248, 19.290541 ] } },
{ "type": "Feature", "properties": { "nombre": "Dif Miguel Hidalgo", "alcaldia": "Tlalpan", "direccion": "Avenida de las torres s/n 1 , N/D", "latitud": 19.284713, "longitud": -99.195899, "horario": "De 09:00 a 19:00" }, "geometry": { "type": "Point", "coordinates": [ -99.195899, 19.284713 ] } },
{ "type": "Feature", "properties": { "nombre": "Dolores Olmedo", "alcaldia": "Xochimilco", "direccion": "PROLONGACION DURAZNOS/N 1 , N/D", "latitud": 19.271658, "longitud": -99.127697, "horario": "De 09:00 a 19:00" }, "geometry": { "type": "Point", "coordinates": [ -99.127697, 19.271658 ] } },
{ "type": "Feature", "properties": { "nombre": "Ecoguardas", "alcaldia": "Tlalpan", "direccion": "CARRETERA PICACHO AJUSCO KILOMETRO 5.5 S/N , AMPLIACION MIGUEL HIDALGO", "latitud": 19.271069, "longitud": -99.204989, "horario": "De 09:00 a 19:00" }, "geometry": { "type": "Point", "coordinates": [ -99.204989, 19.271069 ] } },
{ "type": "Feature", "properties": { "nombre": "Eduardo Del Río \\\\\\&#34;Rius\\\\\\&#34;", "alcaldia": "Álvaro Obregón", "direccion": "Calle Francisco P. Miranda s/n 1 , MERCED GOMEZ", "latitud": 19.366492, "longitud": -99.196128, "horario": "De 09:00 a 19:00" }, "geometry": { "type": "Point", "coordinates": [ -99.196128, 19.366492 ] } },
{ "type": "Feature", "properties": { "nombre": "Eduardo Galeano", "alcaldia": "Iztapalapa", "direccion": "Calle Vicente Guerrero s/n 1 , N/D", "latitud": 19.332416, "longitud": -99.056744, "horario": "De 09:00 a 19:00" }, "geometry": { "type": "Point", "coordinates": [ -99.056744, 19.332416 ] } },
{ "type": "Feature", "properties": { "nombre": "Ejército Constitucionalista", "alcaldia": "Iztapalapa", "direccion": "pendiente 1 , LOMAS DE SAN LORENZO", "latitud": 19.386614, "longitud": -99.057305, "horario": "De 09:00 a 19:00" }, "geometry": { "type": "Point", "coordinates": [ -99.057305, 19.386614 ] } },
{ "type": "Feature", "properties": { "nombre": "Ejército De Oriente", "alcaldia": "Iztapalapa", "direccion": "CALZADA GENERAL IGNACIO ZARAGOZAS/N 1 , Ejercito de Oriente", "latitud": 19.378332, "longitud": -99.036413, "horario": "De 09:00 a 19:00" }, "geometry": { "type": "Point", "coordinates": [ -99.036413, 19.378332 ] } },
{ "type": "Feature", "properties": { "nombre": "Ejidos De San Juan De Aragón", "alcaldia": "Gustavo A. Madero", "direccion": "AVENIDA PUERTO DE PALOS S/N 1 , EJIDOS DE SAN JUAN DE ARAGON", "latitud": 19.469532, "longitud": -99.091313, "horario": "De 09:00 a 19:00" }, "geometry": { "type": "Point", "coordinates": [ -99.091313, 19.469532 ] } },
{ "type": "Feature", "properties": { "nombre": "El Capulin", "alcaldia": "Álvaro Obregón", "direccion": "PROLONGACION ARTIFICIOS S/N , EL CAPULIN", "latitud": 19.395614, "longitud": -99.212233, "horario": "De 09:00 a 19:00" }, "geometry": { "type": "Point", "coordinates": [ -99.212233, 19.395614 ] } },
{ "type": "Feature", "properties": { "nombre": "El Hijo Del Ahuizote", "alcaldia": "Cuauhtémoc", "direccion": "REPÚBLICA DE COLOMBIA 42 , CENTRO", "latitud": 19.438506358472171, "longitud": -99.130052986092281, "horario": "De 09:00 a 19:00" }, "geometry": { "type": "Point", "coordinates": [ -99.130052986092281, 19.438506358472171 ] } },
{ "type": "Feature", "properties": { "nombre": "El Molino", "alcaldia": "Iztapalapa", "direccion": "Calle Derechos Democráticos s/n 1 , N/D", "latitud": 19.292125, "longitud": -99.062443, "horario": "De 09:00 a 19:00" }, "geometry": { "type": "Point", "coordinates": [ -99.062443, 19.292125 ] } },
{ "type": "Feature", "properties": { "nombre": "El Molino Tezonco", "alcaldia": "Iztapalapa", "direccion": "AVENIDA CUAUHTEMOCS/N 1 , N/D", "latitud": 19.294756, "longitud": -99.07147, "horario": "De 09:00 a 19:00" }, "geometry": { "type": "Point", "coordinates": [ -99.07147, 19.294756 ] } },
{ "type": "Feature", "properties": { "nombre": "El Parián", "alcaldia": "Coyoacán", "direccion": "Avenida Miguel Hidalgo 128 , San Lucas", "latitud": 19.351249791209881, "longitud": -99.153843917443879, "horario": "De 10:00 a 20:00" }, "geometry": { "type": "Point", "coordinates": [ -99.153843917443879, 19.351249791209881 ] } },
{ "type": "Feature", "properties": { "nombre": "El Reloj", "alcaldia": "Coyoacán", "direccion": "COROLA S/N , EL RELOJ", "latitud": 19.317323, "longitud": -99.141634, "horario": "De 09:00 a 19:00" }, "geometry": { "type": "Point", "coordinates": [ -99.141634, 19.317323 ] } },
{ "type": "Feature", "properties": { "nombre": "El Rosario", "alcaldia": "Azcapotzalco", "direccion": "Calle Agricultores s/n 1 , El Rosario", "latitud": 19.512964, "longitud": -99.200858, "horario": "De 09:00 a 19:00" }, "geometry": { "type": "Point", "coordinates": [ -99.200858, 19.512964 ] } },
{ "type": "Feature", "properties": { "nombre": "Emiliano Zapata", "alcaldia": "Coyoacán", "direccion": "JOSE MARIA MORELOS 40 , EMILIANO ZAPATA", "latitud": 19.326925, "longitud": -99.137878, "horario": "De 09:00 a 19:00" }, "geometry": { "type": "Point", "coordinates": [ -99.137878, 19.326925 ] } },
{ "type": "Feature", "properties": { "nombre": "Emilio Rosas", "alcaldia": "Iztapalapa", "direccion": "SEGUNDA CERRADA DE EMILIO ROSAS 14 38, UNIDAD HABITACIONAL VICENTE GUERRERO", "latitud": 19.352751, "longitud": -99.056345, "horario": "De 09:00 a 19:00" }, "geometry": { "type": "Point", "coordinates": [ -99.056345, 19.352751 ] } },
{ "type": "Feature", "properties": { "nombre": "Enrique Calderón Alzati", "alcaldia": "Cuauhtémoc", "direccion": "CIRCUITO INTERIOR MELCHOR OCAMPO Y RIO TIBER S/N , CUAUHTEMOC", "latitud": 19.432755, "longitud": -99.170613, "horario": "De 09:00 a 19:00" }, "geometry": { "type": "Point", "coordinates": [ -99.170613, 19.432755 ] } },
{ "type": "Feature", "properties": { "nombre": "Enrique Dussel", "alcaldia": "Coyoacán", "direccion": "Prolongación Huayamilpas s/n 1 , Ajusco", "latitud": 19.3249, "longitud": -99.148332, "horario": "De 09:00 a 19:00" }, "geometry": { "type": "Point", "coordinates": [ -99.148332, 19.3249 ] } },
{ "type": "Feature", "properties": { "nombre": "Ernesto \\\\\\\\\\\\\\&#34;Che\\\\\\\\\\\\\\&#34; Guevara", "alcaldia": "Iztapalapa", "direccion": "Calle Carlos Pacheco s/n 1 , Ejercito de oriente Zona Peñon", "latitud": 19.367087, "longitud": -99.028083, "horario": "De 09:00 a 19:00" }, "geometry": { "type": "Point", "coordinates": [ -99.028083, 19.367087 ] } },
{ "type": "Feature", "properties": { "nombre": "Escuadrón 201", "alcaldia": "Iztapalapa", "direccion": "CIRCUITO INTERIOR RIO CHURUBUSCO Y EJE 3 ORIENTE S/N , ESCUADRON 201", "latitud": 19.370095, "longitud": -99.108023, "horario": "De 09:00 a 19:00" }, "geometry": { "type": "Point", "coordinates": [ -99.108023, 19.370095 ] } },
{ "type": "Feature", "properties": { "nombre": "Estrella", "alcaldia": "Gustavo A. Madero", "direccion": "DE LA ESCUELAS/N 1 , N/D", "latitud": 19.475935, "longitud": -99.115714, "horario": "De 09:00 a 19:00" }, "geometry": { "type": "Point", "coordinates": [ -99.115714, 19.475935 ] } },
{ "type": "Feature", "properties": { "nombre": "Evangelina Corona", "alcaldia": "Cuauhtémoc", "direccion": "CERRADA FRAY SERVANDO TERESA DE MIER 24 , Transito", "latitud": 19.422604, "longitud": -99.132741, "horario": "De 09:00 a 19:00" }, "geometry": { "type": "Point", "coordinates": [ -99.132741, 19.422604 ] } },
{ "type": "Feature", "properties": { "nombre": "Facundo Cabral", "alcaldia": "Iztapalapa", "direccion": "Moctezuma S/N , Los Reyes", "latitud": 19.343614, "longitud": -99.102431, "horario": "De 09:00 a 19:00" }, "geometry": { "type": "Point", "coordinates": [ -99.102431, 19.343614 ] } },
{ "type": "Feature", "properties": { "nombre": "Familia Maza De Juarez", "alcaldia": "Coyoacán", "direccion": "AVENIDA ANACAHUITAS/N 1 , Pedregal de Santo Domingo", "latitud": 19.332152, "longitud": -99.171126, "horario": "De 09:00 a 19:00" }, "geometry": { "type": "Point", "coordinates": [ -99.171126, 19.332152 ] } },
{ "type": "Feature", "properties": { "nombre": "Faro De Azcapotzalco", "alcaldia": "Azcapotzalco", "direccion": "Calle Cultura Norte s/n 1 , N/D", "latitud": 19.506989, "longitud": -99.200132, "horario": "De 09:00 a 19:00" }, "geometry": { "type": "Point", "coordinates": [ -99.200132, 19.506989 ] } },
{ "type": "Feature", "properties": { "nombre": "Felipe Ángeles", "alcaldia": "Venustiano Carranza", "direccion": "Calle Estaños s/n 1 , N/D", "latitud": 19.452389, "longitud": -99.113531, "horario": "De 09:00 a 19:00" }, "geometry": { "type": "Point", "coordinates": [ -99.113531, 19.452389 ] } },
{ "type": "Feature", "properties": { "nombre": "Fernanda \\\\\\&#34;La Chata\\\\\\&#34; Campa", "alcaldia": "Iztacalco", "direccion": "SUR 28S/N 1 , N/D", "latitud": 19.384894, "longitud": -99.065953, "horario": "De 09:00 a 19:00" }, "geometry": { "type": "Point", "coordinates": [ -99.065953, 19.384894 ] } },
{ "type": "Feature", "properties": { "nombre": "Ferrocarril", "alcaldia": "La Magdalena Contreras", "direccion": "Calle Ferrocarril de Cuernavaca s/n 1 , San Francisco", "latitud": 19.312289, "longitud": -99.233372, "horario": "De 09:00 a 20:00" }, "geometry": { "type": "Point", "coordinates": [ -99.233372, 19.312289 ] } },
{ "type": "Feature", "properties": { "nombre": "Framboyanes", "alcaldia": "Tlalpan", "direccion": "Balancan s/n 1 , LOMAS DEL PEDREGAL LOS FRAMBOYANES", "latitud": 19.298933, "longitud": -99.226965, "horario": "De 09:00 a 19:00" }, "geometry": { "type": "Point", "coordinates": [ -99.226965, 19.298933 ] } },
{ "type": "Feature", "properties": { "nombre": "Francisco J. Mugica", "alcaldia": "Coyoacán", "direccion": "Avenida Canal Nacional s/n 1 , CULHUACAN CTM CANAL NACIONAL", "latitud": 19.325191, "longitud": -99.105561, "horario": "De 09:00 a 19:00" }, "geometry": { "type": "Point", "coordinates": [ -99.105561, 19.325191 ] } },
{ "type": "Feature", "properties": { "nombre": "Fray Servando", "alcaldia": "Venustiano Carranza", "direccion": "EJE 3 ORIENTE FRANCISCO DEL PASO Y TRONCOSO Y AVENIDA FRAY S 1 , JARDIN BALBUENA", "latitud": 19.419798, "longitud": -99.111513, "horario": "De 09:00 a 19:00" }, "geometry": { "type": "Point", "coordinates": [ -99.111513, 19.419798 ] } },
{ "type": "Feature", "properties": { "nombre": "Frida Kahlo", "alcaldia": "Cuauhtémoc", "direccion": "Eje Central Lazaro Cardenas S/N , Obrera", "latitud": 19.4106, "longitud": -99.144, "horario": "De 09:00 a 19:00" }, "geometry": { "type": "Point", "coordinates": [ -99.144, 19.4106 ] } },
{ "type": "Feature", "properties": { "nombre": "Gabriela Mistral", "alcaldia": "Iztapalapa", "direccion": "Sur 27 , LEYES DE REFORMA 1RA SECCION", "latitud": 19.35998, "longitud": -99.068819, "horario": "De 09:00 a 19:00" }, "geometry": { "type": "Point", "coordinates": [ -99.068819, 19.35998 ] } },
{ "type": "Feature", "properties": { "nombre": "García Lorca", "alcaldia": "Tláhuac", "direccion": "Cecilio Acosta S/N , SAN MIGUEL ZAPOTITLA", "latitud": 19.31159, "longitud": -99.036944, "horario": "De 09:00 a 19:00" }, "geometry": { "type": "Point", "coordinates": [ -99.036944, 19.31159 ] } },
{ "type": "Feature", "properties": { "nombre": "Gertrudis Sanchez", "alcaldia": "Gustavo A. Madero", "direccion": "AVENIDA HENRY FORDS/N 1 , N/D", "latitud": 19.464034, "longitud": -99.101203, "horario": "De 09:00 a 19:00" }, "geometry": { "type": "Point", "coordinates": [ -99.101203, 19.464034 ] } },
{ "type": "Feature", "properties": { "nombre": "Girasol", "alcaldia": "Gustavo A. Madero", "direccion": "Calle Girasol s/n 1 , N/D", "latitud": 19.559575, "longitud": -99.147155, "horario": "De 09:00 a 19:00" }, "geometry": { "type": "Point", "coordinates": [ -99.147155, 19.559575 ] } },
{ "type": "Feature", "properties": { "nombre": "Gómez Farías", "alcaldia": "Álvaro Obregón", "direccion": "Prolongación Gómez Farias y prolongación Reforma Puerta Santa Fe s/n 1 , N/D", "latitud": 19.380313, "longitud": -99.249652, "horario": "De 09:00 a 19:00" }, "geometry": { "type": "Point", "coordinates": [ -99.249652, 19.380313 ] } },
{ "type": "Feature", "properties": { "nombre": "Guelatao", "alcaldia": "Iztapalapa", "direccion": "AVENIDA CIRCUNVALACIONS/N 1 , Santa Maria Aztahuacan", "latitud": 19.366268, "longitud": -99.039896, "horario": "De 09:00 a 19:00" }, "geometry": { "type": "Point", "coordinates": [ -99.039896, 19.366268 ] } },
{ "type": "Feature", "properties": { "nombre": "Heroes De Cerro Prieto", "alcaldia": "Gustavo A. Madero", "direccion": "Calle Cairo s/n 1 , N/D", "latitud": 19.452556, "longitud": -99.096985, "horario": "De 09:00 a 19:00" }, "geometry": { "type": "Point", "coordinates": [ -99.096985, 19.452556 ] } },
{ "type": "Feature", "properties": { "nombre": "Huayatla", "alcaldia": "La Magdalena Contreras", "direccion": "HUAYATLA 13 , PUEBLO NUEVO ALTO", "latitud": 19.305447, "longitud": -99.248492, "horario": "De 09:00 a 19:00" }, "geometry": { "type": "Point", "coordinates": [ -99.248492, 19.305447 ] } },
{ "type": "Feature", "properties": { "nombre": "Isidro Fabela", "alcaldia": "Álvaro Obregón", "direccion": "ANTIGUA VIA A LA VENTA S/N , ISIDRO FABELA", "latitud": 19.386039, "longitud": -99.2088, "horario": "De 09:00 a 19:00" }, "geometry": { "type": "Point", "coordinates": [ -99.2088, 19.386039 ] } },
{ "type": "Feature", "properties": { "nombre": "Ixhuatepec", "alcaldia": "Gustavo A. Madero", "direccion": "Calle Parque Nacional s/n 1 , N/D", "latitud": 19.508763, "longitud": -99.108614, "horario": "De 09:00 a 19:00" }, "geometry": { "type": "Point", "coordinates": [ -99.108614, 19.508763 ] } },
{ "type": "Feature", "properties": { "nombre": "Ixtlahuacán", "alcaldia": "Iztapalapa", "direccion": "AVENIDA LAZARO CARDENASS/N 1 , IZTLAHUACAN", "latitud": 19.342366, "longitud": -98.996336, "horario": "De 09:00 a 19:00" }, "geometry": { "type": "Point", "coordinates": [ -98.996336, 19.342366 ] } },
{ "type": "Feature", "properties": { "nombre": "Iztaccíhuatl", "alcaldia": "Iztacalco", "direccion": "Calle Playa Erizos s/n 1 , REFORMA IZTACCIHUATL", "latitud": 19.386254, "longitud": -99.130459, "horario": "De 09:00 a 19:00" }, "geometry": { "type": "Point", "coordinates": [ -99.130459, 19.386254 ] } },
{ "type": "Feature", "properties": { "nombre": "Jacobo Árbenz", "alcaldia": "Cuauhtémoc", "direccion": "EJE 1 PONIENTE GUERRERO S/N , SAN SIMON TOLNAHUAC", "latitud": 19.461433, "longitud": -99.14375, "horario": "De 09:00 a 19:00" }, "geometry": { "type": "Point", "coordinates": [ -99.14375, 19.461433 ] } },
{ "type": "Feature", "properties": { "nombre": "Jaime Avilés", "alcaldia": "Coyoacán", "direccion": "Rey Papatzin s/n 1 , AJUSCO", "latitud": 19.312273, "longitud": -99.16539, "horario": "De 09:00 a 19:00" }, "geometry": { "type": "Point", "coordinates": [ -99.16539, 19.312273 ] } },
{ "type": "Feature", "properties": { "nombre": "Jaime Torres Bodet", "alcaldia": "Tláhuac", "direccion": "Calle Educación Politécnica 27 43, JAIME TORRES BODET", "latitud": 19.230497, "longitud": -98.999782, "horario": "De 09:00 a 19:00" }, "geometry": { "type": "Point", "coordinates": [ -98.999782, 19.230497 ] } },
{ "type": "Feature", "properties": { "nombre": "Jalalpa Tepito", "alcaldia": "Álvaro Obregón", "direccion": "ENCINAL S/N , JALALPA TEPITO", "latitud": 19.374318, "longitud": -99.236969, "horario": "De 09:00 a 19:00" }, "geometry": { "type": "Point", "coordinates": [ -99.236969, 19.374318 ] } },
{ "type": "Feature", "properties": { "nombre": "Jardines Tecma", "alcaldia": "Iztacalco", "direccion": "Avenida Canal de Tezontle 157 1 , JARDINES TECMA", "latitud": 19.388271, "longitud": -99.116082, "horario": "De 09:00 a 19:00" }, "geometry": { "type": "Point", "coordinates": [ -99.116082, 19.388271 ] } },
{ "type": "Feature", "properties": { "nombre": "Jesús Maldonado", "alcaldia": "Coyoacán", "direccion": "SAN ISAURO 940 1, SANTA URSULA COAPA PEDREGAL DE SANTA URSULA COAPA", "latitud": 19.30982, "longitud": -99.156989, "horario": "De 09:00 a 19:00" }, "geometry": { "type": "Point", "coordinates": [ -99.156989, 19.30982 ] } },
{ "type": "Feature", "properties": { "nombre": "José De Molina", "alcaldia": "Coyoacán", "direccion": "AVENIDA ANTONIO DELFIN MADRIGAL S/N 1 , SANTO DOMINGO PGAL DE STO DOMINGO", "latitud": 19.317944, "longitud": -99.171981, "horario": "De 09:00 a 19:00" }, "geometry": { "type": "Point", "coordinates": [ -99.171981, 19.317944 ] } },
{ "type": "Feature", "properties": { "nombre": "José Martí", "alcaldia": "Iztacalco", "direccion": "JUAREZ 2 , LA ASUNCION", "latitud": 19.39048, "longitud": -99.121215, "horario": "De 09:00 a 19:00" }, "geometry": { "type": "Point", "coordinates": [ -99.121215, 19.39048 ] } },
{ "type": "Feature", "properties": { "nombre": "José Revueltas", "alcaldia": "Iztapalapa", "direccion": "AVENIDA PROLONGACION REFORMAS/N 1 , Lomas de San Lorenzo", "latitud": 19.321229, "longitud": -99.065557, "horario": "De 09:00 a 19:00" }, "geometry": { "type": "Point", "coordinates": [ -99.065557, 19.321229 ] } },
{ "type": "Feature", "properties": { "nombre": "José Saramago", "alcaldia": "Álvaro Obregón", "direccion": "Avenida Río Mixcoac Oriente s/n 1 , LOMAS DE PLATEROS", "latitud": 19.36816, "longitud": -99.208013, "horario": "De 09:00 a 19:00" }, "geometry": { "type": "Point", "coordinates": [ -99.208013, 19.36816 ] } },
{ "type": "Feature", "properties": { "nombre": "Joya De Nieves", "alcaldia": "Gustavo A. Madero", "direccion": "AREA NATURAL PROTEGIDA SIERRA DE GUADALUPES/N 1 , N/D", "latitud": 19.559204, "longitud": -99.117996, "horario": "De 09:00 a 19:00" }, "geometry": { "type": "Point", "coordinates": [ -99.117996, 19.559204 ] } },
{ "type": "Feature", "properties": { "nombre": "Juan Jacobo Hernández", "alcaldia": "Cuauhtémoc", "direccion": "GLORIETA DE LOS INSURGENTES S/N , JUAREZ", "latitud": 19.423367, "longitud": -99.162892, "horario": "De 09:00 a 19:00" }, "geometry": { "type": "Point", "coordinates": [ -99.162892, 19.423367 ] } },
{ "type": "Feature", "properties": { "nombre": "Juventino Rosas", "alcaldia": "La Magdalena Contreras", "direccion": "Calle Alfonso Priani s/n 1 , N/D", "latitud": 19.306411, "longitud": -99.233014, "horario": "De 09:00 a 19:00" }, "geometry": { "type": "Point", "coordinates": [ -99.233014, 19.306411 ] } },
{ "type": "Feature", "properties": { "nombre": "La Araña", "alcaldia": "Álvaro Obregón", "direccion": "PROLONGACION RIO MIXCOAC S/N , La Araña", "latitud": 19.36265, "longitud": -99.240295, "horario": "De 09:00 a 19:00" }, "geometry": { "type": "Point", "coordinates": [ -99.240295, 19.36265 ] } },
{ "type": "Feature", "properties": { "nombre": "La Comuna Iztapalapa", "alcaldia": "Iztapalapa", "direccion": "VILLANUEVA DE AZOAGUEMZ. 16 LT. 3 1 , N/D", "latitud": 19.326825, "longitud": -99.039645, "horario": "De 09:00 a 19:00" }, "geometry": { "type": "Point", "coordinates": [ -99.039645, 19.326825 ] } },
{ "type": "Feature", "properties": { "nombre": "La Cuesta", "alcaldia": "Álvaro Obregón", "direccion": "ANDADOR TECALCAPA S/N 1 , EL MIRADOR", "latitud": 19.345656, "longitud": -99.225719, "horario": "De 09:00 a 19:00" }, "geometry": { "type": "Point", "coordinates": [ -99.225719, 19.345656 ] } },
{ "type": "Feature", "properties": { "nombre": "La Equidad", "alcaldia": "Cuauhtémoc", "direccion": "JESUS CARRANZA 15 , MORELOS", "latitud": 19.444194, "longitud": -99.1305, "horario": "De 09:00 a 19:00" }, "geometry": { "type": "Point", "coordinates": [ -99.1305, 19.444194 ] } },
{ "type": "Feature", "properties": { "nombre": "La Escuelita", "alcaldia": "Coyoacán", "direccion": "CANACUATE S/N , SANTO DOMINGO", "latitud": 19.325999, "longitud": -99.164863, "horario": "De 09:00 a 19:00" }, "geometry": { "type": "Point", "coordinates": [ -99.164863, 19.325999 ] } },
{ "type": "Feature", "properties": { "nombre": "La Fortaleza", "alcaldia": "Iztacalco", "direccion": "ORIENTE 116 Y PUENTE SAN JUAN CARBONERO S/N , CUCHILLA RAMOS MILLAN, SECCION CUCHILLA", "latitud": 19.388088, "longitud": -99.091787, "horario": "De 09:00 a 19:00" }, "geometry": { "type": "Point", "coordinates": [ -99.091787, 19.388088 ] } },
{ "type": "Feature", "properties": { "nombre": "La Higuera", "alcaldia": "La Magdalena Contreras", "direccion": "Higueras s/n 1 , San Bernabe Ocotepec", "latitud": 19.32071, "longitud": -99.258238, "horario": "De 09:00 a 19:00" }, "geometry": { "type": "Point", "coordinates": [ -99.258238, 19.32071 ] } },
{ "type": "Feature", "properties": { "nombre": "La Joya", "alcaldia": "Tlalpan", "direccion": "Insurgentes 1 , La Joya", "latitud": 19.278441, "longitud": -99.167562, "horario": "De 09:00 a 19:00" }, "geometry": { "type": "Point", "coordinates": [ -99.167562, 19.278441 ] } },
{ "type": "Feature", "properties": { "nombre": "La Magdalena Atlitic", "alcaldia": "La Magdalena Contreras", "direccion": "Calle Emilio Carranza s/n 1 , N/D", "latitud": 19.300773, "longitud": -99.249778, "horario": "De 09:00 a 19:00" }, "geometry": { "type": "Point", "coordinates": [ -99.249778, 19.300773 ] } },
{ "type": "Feature", "properties": { "nombre": "La Malinche", "alcaldia": "La Magdalena Contreras", "direccion": "ROSA CHINA 11 , LA MALINCHE", "latitud": 19.323738, "longitud": -99.239492, "horario": "De 09:00 a 19:00" }, "geometry": { "type": "Point", "coordinates": [ -99.239492, 19.323738 ] } },
{ "type": "Feature", "properties": { "nombre": "La Muela", "alcaldia": "Gustavo A. Madero", "direccion": "EMILIO CARRANZA S/N , ZONA ESCOLAR ORIENTE", "latitud": 19.532732, "longitud": -99.143981, "horario": "De 09:00 a 19:00" }, "geometry": { "type": "Point", "coordinates": [ -99.143981, 19.532732 ] } },
{ "type": "Feature", "properties": { "nombre": "La Naranja", "alcaldia": "Azcapotzalco", "direccion": "CALZADA DE LA NARANJA 1015 , AMPLIACION SAN PEDRO XALPA", "latitud": 19.474472, "longitud": -99.218516, "horario": "De 09:00 a 19:00" }, "geometry": { "type": "Point", "coordinates": [ -99.218516, 19.474472 ] } },
{ "type": "Feature", "properties": { "nombre": "Las Águilas", "alcaldia": "Álvaro Obregón", "direccion": "Prolongación Barranca del muerto s/n 1 , N/D", "latitud": 19.362055, "longitud": -99.205686, "horario": "De 09:00 a 19:00" }, "geometry": { "type": "Point", "coordinates": [ -99.205686, 19.362055 ] } },
{ "type": "Feature", "properties": { "nombre": "Las Salinas", "alcaldia": "Azcapotzalco", "direccion": "CALHUACATZINGOS/N 1 , N/D", "latitud": 19.489017, "longitud": -99.166269, "horario": "De 09:00 a 19:00" }, "geometry": { "type": "Point", "coordinates": [ -99.166269, 19.489017 ] } },
{ "type": "Feature", "properties": { "nombre": "Leyes De Reforma Iii Sección 2", "alcaldia": "Iztapalapa", "direccion": "Avenida Canal del Moral s/n 1 , Chinampac de Juarez", "latitud": 19.374705, "longitud": -99.062938, "horario": "De 09:00 a 19:00" }, "geometry": { "type": "Point", "coordinates": [ -99.062938, 19.374705 ] } },
{ "type": "Feature", "properties": { "nombre": "Loma La Palma", "alcaldia": "Gustavo A. Madero", "direccion": "Calle 18 de marzo s/n 1 , LOMA LA PALMA", "latitud": 19.549614, "longitud": -99.142697, "horario": "De 09:00 a 19:00" }, "geometry": { "type": "Point", "coordinates": [ -99.142697, 19.549614 ] } },
{ "type": "Feature", "properties": { "nombre": "Lomas De Becerra", "alcaldia": "Álvaro Obregón", "direccion": "Calle antigua vía la venta s/n 1 , N/D", "latitud": 19.386095, "longitud": -99.218412, "horario": "De 09:00 a 19:00" }, "geometry": { "type": "Point", "coordinates": [ -99.218412, 19.386095 ] } },
{ "type": "Feature", "properties": { "nombre": "Lomas De Cuilotepec", "alcaldia": "Tlalpan", "direccion": "EJIDALMZ. 16 LT. 12, Lomas de Cuilotepec", "latitud": 19.272374, "longitud": -99.233641, "horario": "De 09:00 a 19:00" }, "geometry": { "type": "Point", "coordinates": [ -99.233641, 19.272374 ] } },
{ "type": "Feature", "properties": { "nombre": "Lomas De La Era", "alcaldia": "Álvaro Obregón", "direccion": "ANDADOR 29 DE OCTUBRE S/N , LOMAS DE LA ERA", "latitud": 19.325668, "longitud": -99.259582, "horario": "De 09:00 a 19:00" }, "geometry": { "type": "Point", "coordinates": [ -99.259582, 19.325668 ] } },
{ "type": "Feature", "properties": { "nombre": "Lomas De La Estancia", "alcaldia": "Iztapalapa", "direccion": "Calle Camino a las minas s/n 1 , N/D", "latitud": 19.340403, "longitud": -99.007645, "horario": "De 09:00 a 19:00" }, "geometry": { "type": "Point", "coordinates": [ -99.007645, 19.340403 ] } },
{ "type": "Feature", "properties": { "nombre": "Magdalena De Las Salinas", "alcaldia": "Gustavo A. Madero", "direccion": "PONIENTE 114 S/N , MAGDALENA DE LAS SALINAS", "latitud": 19.47906, "longitud": -99.146222, "horario": "De 09:00 a 19:00" }, "geometry": { "type": "Point", "coordinates": [ -99.146222, 19.47906 ] } },
{ "type": "Feature", "properties": { "nombre": "Malacates", "alcaldia": "Gustavo A. Madero", "direccion": "AQUILES SERDANS/N 1 , N/D", "latitud": 19.575041, "longitud": -99.128621, "horario": "De 09:00 a 19:00" }, "geometry": { "type": "Point", "coordinates": [ -99.128621, 19.575041 ] } },
{ "type": "Feature", "properties": { "nombre": "Marcelino Buendía", "alcaldia": "Iztapalapa", "direccion": "Calle 17 mz 162 lt. 1844-B, N/D", "latitud": 19.380468, "longitud": -99.069407, "horario": "De 09:00 a 19:00" }, "geometry": { "type": "Point", "coordinates": [ -99.069407, 19.380468 ] } },
{ "type": "Feature", "properties": { "nombre": "Margarita Maza De Juarez", "alcaldia": "Azcapotzalco", "direccion": "AMUZGOS S/N , TEZOZOMOC", "latitud": 19.490142, "longitud": -99.199114, "horario": "De 09:00 a 19:00" }, "geometry": { "type": "Point", "coordinates": [ -99.199114, 19.490142 ] } },
{ "type": "Feature", "properties": { "nombre": "Martha Pérez Bejarano", "alcaldia": "Álvaro Obregón", "direccion": "Calle 1 de noviembre s/n 1 , La Conchita", "latitud": 19.392625, "longitud": -99.207139, "horario": "De 09:00 a 19:00" }, "geometry": { "type": "Point", "coordinates": [ -99.207139, 19.392625 ] } },
{ "type": "Feature", "properties": { "nombre": "Martín Carrera", "alcaldia": "Gustavo A. Madero", "direccion": "Calle 5 de febrero s/n 1 , N/D", "latitud": 19.485596, "longitud": -99.11315, "horario": "De 09:00 a 19:00" }, "geometry": { "type": "Point", "coordinates": [ -99.11315, 19.485596 ] } },
{ "type": "Feature", "properties": { "nombre": "Mártires Del 10 De Junio", "alcaldia": "Iztacalco", "direccion": "EJE 4 SUR AVENIDA PLUTARCO ELIAS CALLES Y EJE 3 ORIENTE AZUCAR (BAJO PUENTE)S/N 1 , GRANJAS MEXICO", "latitud": 19.398346, "longitud": -99.114007, "horario": "De 09:00 a 19:00" }, "geometry": { "type": "Point", "coordinates": [ -99.114007, 19.398346 ] } },
{ "type": "Feature", "properties": { "nombre": "Miacatlán", "alcaldia": "Milpa Alta", "direccion": "Calle Bolivar Poniente s/n 1 , N/D", "latitud": 19.193173, "longitud": -99.009783, "horario": "De 09:00 a 19:00" }, "geometry": { "type": "Point", "coordinates": [ -99.009783, 19.193173 ] } },
{ "type": "Feature", "properties": { "nombre": "Miguel Gaona Armenta", "alcaldia": "Álvaro Obregón", "direccion": "Calle Río Mixcoac s/n 1 , Santa Lucia", "latitud": 19.35602, "longitud": -99.251921, "horario": "De 09:00 a 19:00" }, "geometry": { "type": "Point", "coordinates": [ -99.251921, 19.35602 ] } },
{ "type": "Feature", "properties": { "nombre": "Miguel Hidalgo", "alcaldia": "Tláhuac", "direccion": "LA GIOCONDA 1 , MIGUEL HIDALGO", "latitud": 19.292537, "longitud": -99.045934, "horario": "De 09:00 a 19:00" }, "geometry": { "type": "Point", "coordinates": [ -99.045934, 19.292537 ] } },
{ "type": "Feature", "properties": { "nombre": "Milpa_Alta", "alcaldia": "Milpa Alta", "direccion": "Calle Tabasco Oriente s/n 1 , N/D", "latitud": 19.193673, "longitud": -99.018971, "horario": "De 09:00 a 19:00" }, "geometry": { "type": "Point", "coordinates": [ -99.018971, 19.193673 ] } },
{ "type": "Feature", "properties": { "nombre": "Mixquic", "alcaldia": "Tláhuac", "direccion": "CARRETERA FEDERAL MEXICO-CHALCO ESQUINA CALLE RIO AMECA S/N , SANTA CRUZ MIXQUIC", "latitud": 19.226245, "longitud": -98.952629, "horario": "De 09:00 a 19:00" }, "geometry": { "type": "Point", "coordinates": [ -98.952629, 19.226245 ] } },
{ "type": "Feature", "properties": { "nombre": "Municipio Libre", "alcaldia": "Benito Juárez", "direccion": "MUNICIPIO LIBRE Y CALZADA DE TLALPAN S/N , PORTALES NORTE", "latitud": 19.368044, "longitud": -99.141578, "horario": "De 09:00 a 19:00" }, "geometry": { "type": "Point", "coordinates": [ -99.141578, 19.368044 ] } },
{ "type": "Feature", "properties": { "nombre": "Murciélago", "alcaldia": "Tláhuac", "direccion": "Murciélago 3 , AGRICOLA METROPOLITANA", "latitud": 19.291703, "longitud": -99.049312, "horario": "De 09:00 a 19:00" }, "geometry": { "type": "Point", "coordinates": [ -99.049312, 19.291703 ] } },
{ "type": "Feature", "properties": { "nombre": "Muyuguarda", "alcaldia": "Xochimilco", "direccion": "Calle Plan de Muyuguarda y  Canal de la Noria s/n 1 , Barrio 18", "latitud": 19.275531, "longitud": -99.118496, "horario": "De 09:00 a 19:00" }, "geometry": { "type": "Point", "coordinates": [ -99.118496, 19.275531 ] } },
{ "type": "Feature", "properties": { "nombre": "Nahui Olin", "alcaldia": "Miguel Hidalgo", "direccion": "Calle Becerra 88 , BARRIO DE SAN JUAN TACUBAYA", "latitud": 19.395989, "longitud": -99.187846, "horario": "De 09:00 a 19:00" }, "geometry": { "type": "Point", "coordinates": [ -99.187846, 19.395989 ] } },
{ "type": "Feature", "properties": { "nombre": "Nativitas", "alcaldia": "Xochimilco", "direccion": "CAMINO DE NATIVITAS (ZACAPA)S/N 1 , N/D", "latitud": 19.247748760924399, "longitud": -99.09419025694794, "horario": "De 09:00 a 19:00" }, "geometry": { "type": "Point", "coordinates": [ -99.09419025694794, 19.247748760924399 ] } },
{ "type": "Feature", "properties": { "nombre": "Nogal", "alcaldia": "Iztapalapa", "direccion": "FRESNO Y NOGAL S/N , CITLALLI", "latitud": 19.342065, "longitud": -99.022783, "horario": "De 09:00 a 19:00" }, "geometry": { "type": "Point", "coordinates": [ -99.022783, 19.342065 ] } },
{ "type": "Feature", "properties": { "nombre": "Nopalera", "alcaldia": "Tláhuac", "direccion": "RICARDO MONGES LOPEZS/N 1 , N/D", "latitud": 19.296459, "longitud": -99.05479, "horario": "De 09:00 a 19:00" }, "geometry": { "type": "Point", "coordinates": [ -99.05479, 19.296459 ] } },
{ "type": "Feature", "properties": { "nombre": "Nueva Atzacoalco", "alcaldia": "Gustavo A. Madero", "direccion": "Avenida 314 1 , Nueva Atzacoalco", "latitud": 19.500659, "longitud": -99.084653, "horario": "De 09:00 a 19:00" }, "geometry": { "type": "Point", "coordinates": [ -99.084653, 19.500659 ] } },
{ "type": "Feature", "properties": { "nombre": "Oceanía", "alcaldia": "Gustavo A. Madero", "direccion": "EJE 3 NORTE AV. 608 S/N 1 , San Juan de Aragon", "latitud": 19.451273, "longitud": -99.080618, "horario": "De 09:00 a 19:00" }, "geometry": { "type": "Point", "coordinates": [ -99.080618, 19.451273 ] } },
{ "type": "Feature", "properties": { "nombre": "Olivar Del Conde", "alcaldia": "Álvaro Obregón", "direccion": "CALLE 20 S/N , OLIVAR DEL CONDE 1A SECCION", "latitud": 19.373912, "longitud": -99.20479, "horario": "De 09:00 a 19:00" }, "geometry": { "type": "Point", "coordinates": [ -99.20479, 19.373912 ] } },
{ "type": "Feature", "properties": { "nombre": "Othón Salazar", "alcaldia": "Miguel Hidalgo", "direccion": "Calle Colegio Salesiano s/n 1 , Anahuac 1 Sección", "latitud": 19.44771, "longitud": -99.177168, "horario": "De 09:00 a 19:00" }, "geometry": { "type": "Point", "coordinates": [ -99.177168, 19.44771 ] } },
{ "type": "Feature", "properties": { "nombre": "Palmitas", "alcaldia": "Iztapalapa", "direccion": "NATIVITAS S/N , PALMITAS", "latitud": 19.338964, "longitud": -99.026068, "horario": "De 09:00 a 19:00" }, "geometry": { "type": "Point", "coordinates": [ -99.026068, 19.338964 ] } },
{ "type": "Feature", "properties": { "nombre": "Paquita Calvo Zapata", "alcaldia": "Iztacalco", "direccion": "AVENIDA LENGUAS INDIGENAS S/N S/N , CARLOS ZAPATA VELA", "latitud": 19.382455, "longitud": -99.096716, "horario": "De 09:00 a 19:00" }, "geometry": { "type": "Point", "coordinates": [ -99.096716, 19.382455 ] } },
{ "type": "Feature", "properties": { "nombre": "Parcela", "alcaldia": "La Magdalena Contreras", "direccion": "Parcela S/N , LOMAS DE SAN BERNABE", "latitud": 19.310579, "longitud": -99.264856, "horario": "De 09:00 a 19:00" }, "geometry": { "type": "Point", "coordinates": [ -99.264856, 19.310579 ] } },
{ "type": "Feature", "properties": { "nombre": "Parque Abasolo", "alcaldia": "Cuauhtémoc", "direccion": "Eje 1 poniente Guerrero s/n 1 , N/D", "latitud": 19.449198, "longitud": -99.147051, "horario": "De 09:00 a 19:00" }, "geometry": { "type": "Point", "coordinates": [ -99.147051, 19.449198 ] } },
{ "type": "Feature", "properties": { "nombre": "Parque Alameda Oriente", "alcaldia": "Venustiano Carranza", "direccion": "Bordo de Xochiaca s/n 1 , N/D", "latitud": 19.432183, "longitud": -99.052786, "horario": "De 09:00 a 19:00" }, "geometry": { "type": "Point", "coordinates": [ -99.052786, 19.432183 ] } },
{ "type": "Feature", "properties": { "nombre": "Parque Cuitláhuac", "alcaldia": "Iztapalapa", "direccion": "Avenida Genaro Estrada s/n 1 , Vicente Guerrero", "latitud": 19.363934, "longitud": -99.048112, "horario": "De 09:00 a 19:00" }, "geometry": { "type": "Point", "coordinates": [ -99.048112, 19.363934 ] } },
{ "type": "Feature", "properties": { "nombre": "Parque Nacional", "alcaldia": "Iztapalapa", "direccion": "Calle Hermanos Lumiere s/n 1 , N/D", "latitud": 19.330048, "longitud": -99.093552, "horario": "De 09:00 a 19:00" }, "geometry": { "type": "Point", "coordinates": [ -99.093552, 19.330048 ] } },
{ "type": "Feature", "properties": { "nombre": "Parque Patolli", "alcaldia": "Iztapalapa", "direccion": "ALEJANDRO AURAS/N 1 , SANTA MARTHA ACATITLA NORTE", "latitud": 19.369413, "longitud": -99.00867, "horario": "De 09:00 a 19:00" }, "geometry": { "type": "Point", "coordinates": [ -99.00867, 19.369413 ] } },
{ "type": "Feature", "properties": { "nombre": "Parque Velodromo", "alcaldia": "Venustiano Carranza", "direccion": "EJE 3 SUR AV. MORELOSS/N 1 , N/D", "latitud": 19.410567, "longitud": -99.102571, "horario": "De 09:00 a 19:00" }, "geometry": { "type": "Point", "coordinates": [ -99.102571, 19.410567 ] } },
{ "type": "Feature", "properties": { "nombre": "Paulo Freire", "alcaldia": "Tláhuac", "direccion": "SANTA CRUZ 127 , LAS ARBOLEDAS", "latitud": 19.305964, "longitud": -99.051097, "horario": "De 09:00 a 19:00" }, "geometry": { "type": "Point", "coordinates": [ -99.051097, 19.305964 ] } },
{ "type": "Feature", "properties": { "nombre": "Pelon Osuna", "alcaldia": "Venustiano Carranza", "direccion": "Calle Norte 21 S/N , MOCTEZUMA 2DA SECCION", "latitud": 19.427933, "longitud": -99.0922, "horario": "De 09:00 a 20:00" }, "geometry": { "type": "Point", "coordinates": [ -99.0922, 19.427933 ] } },
{ "type": "Feature", "properties": { "nombre": "Pepe Barberán", "alcaldia": "Tlalpan", "direccion": "Zapote 155 , Zapote", "latitud": 19.30027, "longitud": -99.178842, "horario": "De 09:00 a 19:00" }, "geometry": { "type": "Point", "coordinates": [ -99.178842, 19.30027 ] } },
{ "type": "Feature", "properties": { "nombre": "Pilares En Línea", "alcaldia": "Álvaro Obregón", "direccion": "Barranca del Muerto 24 , Guadalupe Inn", "latitud": 19.361342029184264, "longitud": -99.183992553833207, "horario": "De 10:00 a 20:00" }, "geometry": { "type": "Point", "coordinates": [ -99.183992553833207, 19.361342029184264 ] } },
{ "type": "Feature", "properties": { "nombre": "Piloto", "alcaldia": "Álvaro Obregón", "direccion": "Calle Minas s/n 1 , Piloto Adolfo Lopez Mateos", "latitud": 19.371521, "longitud": -99.232365, "horario": "De 09:00 a 19:00" }, "geometry": { "type": "Point", "coordinates": [ -99.232365, 19.371521 ] } },
{ "type": "Feature", "properties": { "nombre": "Plaza De Los Jóvenes", "alcaldia": "Iztapalapa", "direccion": "Avenida de las minas s/n 1 , N/D", "latitud": 19.331743, "longitud": -99.017377, "horario": "De 09:00 a 19:00" }, "geometry": { "type": "Point", "coordinates": [ -99.017377, 19.331743 ] } },
{ "type": "Feature", "properties": { "nombre": "Presidentes", "alcaldia": "Álvaro Obregón", "direccion": "ADOLFO DE LA HUERTA S/N , PRESIDENTES", "latitud": 19.377244, "longitud": -99.221328, "horario": "De 09:00 a 19:00" }, "geometry": { "type": "Point", "coordinates": [ -99.221328, 19.377244 ] } },
{ "type": "Feature", "properties": { "nombre": "Pro Hogar", "alcaldia": "Azcapotzalco", "direccion": "CALLE 22 17 , PRO HOGAR", "latitud": 19.474867, "longitud": -99.149764, "horario": "De 09:00 a 19:00" }, "geometry": { "type": "Point", "coordinates": [ -99.149764, 19.474867 ] } },
{ "type": "Feature", "properties": { "nombre": "Progreso Nacional", "alcaldia": "Gustavo A. Madero", "direccion": "Avenida Río de los remedios s/n 1 , N/D", "latitud": 19.516333, "longitud": -99.152818, "horario": "De 09:00 a 19:00" }, "geometry": { "type": "Point", "coordinates": [ -99.152818, 19.516333 ] } },
{ "type": "Feature", "properties": { "nombre": "Progreso Sur", "alcaldia": "Iztapalapa", "direccion": "EJE 3 ORIENTE ARNESES Y CALZADA ERMITA IZTAPALAPA S/N , PROGRESO SUR", "latitud": 19.356635, "longitud": -99.112803, "horario": "De 09:00 a 19:00" }, "geometry": { "type": "Point", "coordinates": [ -99.112803, 19.356635 ] } },
{ "type": "Feature", "properties": { "nombre": "Providencia", "alcaldia": "Gustavo A. Madero", "direccion": "Calle Estado de Zacatecas s/n 1 , N/D", "latitud": 19.48466, "longitud": -99.070618, "horario": "De 09:00 a 19:00" }, "geometry": { "type": "Point", "coordinates": [ -99.070618, 19.48466 ] } },
{ "type": "Feature", "properties": { "nombre": "Puerto Mazatlán", "alcaldia": "Gustavo A. Madero", "direccion": "AVENIDA TICOMAN Y AVENIDA CUAUTEPEC S/N , JORGE NEGRETE", "latitud": 19.521406, "longitud": -99.141952, "horario": "De 09:00 a 19:00" }, "geometry": { "type": "Point", "coordinates": [ -99.141952, 19.521406 ] } },
{ "type": "Feature", "properties": { "nombre": "Purísima", "alcaldia": "Iztapalapa", "direccion": "EJE 5 SUR PURISIMA Y EJE 3 ORIENTE FRANCISCO DEL PASO Y TRON S/N , NUEVA ROSITA", "latitud": 19.37914, "longitud": -99.109866, "horario": "De 09:00 a 19:00" }, "geometry": { "type": "Point", "coordinates": [ -99.109866, 19.37914 ] } },
{ "type": "Feature", "properties": { "nombre": "Quetzalcóatl", "alcaldia": "Tláhuac", "direccion": "CARLOS A. VIDAL39 1 , N/D", "latitud": 19.294968, "longitud": -99.013656, "horario": "De 09:00 a 19:00" }, "geometry": { "type": "Point", "coordinates": [ -99.013656, 19.294968 ] } },
{ "type": "Feature", "properties": { "nombre": "Ramón Corona", "alcaldia": "Gustavo A. Madero", "direccion": "Calle La Esperanza s/n 1 , INDUSTRIAL", "latitud": 19.477106, "longitud": -99.123901, "horario": "De 09:00 a 19:00" }, "geometry": { "type": "Point", "coordinates": [ -99.123901, 19.477106 ] } },
{ "type": "Feature", "properties": { "nombre": "Ratón Macías", "alcaldia": "Cuauhtémoc", "direccion": "Calle Dr Andrade 401 1 , Buenos Aires", "latitud": 19.406082, "longitud": -99.148434, "horario": "De 09:00 a 19:00" }, "geometry": { "type": "Point", "coordinates": [ -99.148434, 19.406082 ] } },
{ "type": "Feature", "properties": { "nombre": "Raúl Álvarez Garín", "alcaldia": "Gustavo A. Madero", "direccion": "Avenida Gran Canal s/n 1 , N/D", "latitud": 19.480545, "longitud": -99.089197, "horario": "De 09:00 a 19:00" }, "geometry": { "type": "Point", "coordinates": [ -99.089197, 19.480545 ] } },
{ "type": "Feature", "properties": { "nombre": "Reforma Política", "alcaldia": "Iztapalapa", "direccion": "EJE 8 SUR CALZADA ERMITA ITAPALAPAS/N 1 , N/D", "latitud": 19.343837, "longitud": -99.031733, "horario": "De 09:00 a 19:00" }, "geometry": { "type": "Point", "coordinates": [ -99.031733, 19.343837 ] } },
{ "type": "Feature", "properties": { "nombre": "Renovación", "alcaldia": "Iztapalapa", "direccion": "Avenida 9 D , Renovación", "latitud": 19.369484, "longitud": -99.046966, "horario": "De 09:00 a 19:00" }, "geometry": { "type": "Point", "coordinates": [ -99.046966, 19.369484 ] } },
{ "type": "Feature", "properties": { "nombre": "República Federal", "alcaldia": "Iztapalapa", "direccion": "AVENIDA REPUBLICA FEDERALS/N 1 , Santa Martha Acatitla Sur", "latitud": 19.371216, "longitud": -99.016333, "horario": "De 09:00 a 19:00" }, "geometry": { "type": "Point", "coordinates": [ -99.016333, 19.371216 ] } },
{ "type": "Feature", "properties": { "nombre": "Revolución", "alcaldia": "Gustavo A. Madero", "direccion": "Calle Río Rivera s/n 1 , GUADALUPE VICTORIA", "latitud": 19.540931, "longitud": -99.142178, "horario": "De 09:00 a 19:00" }, "geometry": { "type": "Point", "coordinates": [ -99.142178, 19.540931 ] } },
{ "type": "Feature", "properties": { "nombre": "Ricardo Flores Magón", "alcaldia": "Xochimilco", "direccion": "Calle Francisco Goitia s/n 1 , Barrio San Pedro", "latitud": 19.255547, "longitud": -99.10651, "horario": "De 09:00 a 19:00" }, "geometry": { "type": "Point", "coordinates": [ -99.10651, 19.255547 ] } },
{ "type": "Feature", "properties": { "nombre": "Richard Wagner", "alcaldia": "Gustavo A. Madero", "direccion": "Carril 23 4A 301, San Juan Xalpa", "latitud": 19.46552, "longitud": -99.129176, "horario": "De 09:00 a 19:00" }, "geometry": { "type": "Point", "coordinates": [ -99.129176, 19.46552 ] } },
{ "type": "Feature", "properties": { "nombre": "Rini Templeton", "alcaldia": "Azcapotzalco", "direccion": "CALZADA REAL DE SAN MARTIN270 1 , N/D", "latitud": 19.497553, "longitud": -99.187815, "horario": "De 09:00 a 19:00" }, "geometry": { "type": "Point", "coordinates": [ -99.187815, 19.497553 ] } },
{ "type": "Feature", "properties": { "nombre": "Rio San Borja", "alcaldia": "Álvaro Obregón", "direccion": "Avenida Río San Borja s/n 1 , N/D", "latitud": 19.375569, "longitud": -99.216853, "horario": "De 09:00 a 19:00" }, "geometry": { "type": "Point", "coordinates": [ -99.216853, 19.375569 ] } },
{ "type": "Feature", "properties": { "nombre": "Rita Guerrero", "alcaldia": "Venustiano Carranza", "direccion": "Avenida Gran Canal s/n 1 , N/D", "latitud": 19.435755, "longitud": -99.1083, "horario": "De 09:00 a 19:00" }, "geometry": { "type": "Point", "coordinates": [ -99.1083, 19.435755 ] } },
{ "type": "Feature", "properties": { "nombre": "Rockdrigo González", "alcaldia": "Cuauhtémoc", "direccion": "REPUBLICA DE PERU 88 S/N , CENTRO", "latitud": 19.439862, "longitud": -99.134292, "horario": "De 09:00 a 19:00" }, "geometry": { "type": "Point", "coordinates": [ -99.134292, 19.439862 ] } },
{ "type": "Feature", "properties": { "nombre": "Rojo Gomez", "alcaldia": "Iztacalco", "direccion": "EJE 5 ORIENTE JAVIER ROJO GOMEZ Y CALZADA IGNACIO ZARAGOZA S/N , AGRICOLA ORIENTAL", "latitud": 19.404746, "longitud": -99.071009, "horario": "De 09:00 a 19:00" }, "geometry": { "type": "Point", "coordinates": [ -99.071009, 19.404746 ] } },
{ "type": "Feature", "properties": { "nombre": "Rosario Castellanos", "alcaldia": "Tláhuac", "direccion": "AVENIDA TLAHUAC S/N , SANTA CECILIA", "latitud": 19.278319, "longitud": -99.007967, "horario": "De 09:00 a 19:00" }, "geometry": { "type": "Point", "coordinates": [ -99.007967, 19.278319 ] } },
{ "type": "Feature", "properties": { "nombre": "Rosario Ibarra De Piedra", "alcaldia": "Miguel Hidalgo", "direccion": "LAGO TRASIMENO S/N 1 , REFORMA PENSIL", "latitud": 19.449211, "longitud": -99.194548, "horario": "De 09:00 a 19:00" }, "geometry": { "type": "Point", "coordinates": [ -99.194548, 19.449211 ] } },
{ "type": "Feature", "properties": { "nombre": "Salvador Allende La Comuna", "alcaldia": "Álvaro Obregón", "direccion": "Calle Flores Magón s/n 1 , N/D", "latitud": 19.372826, "longitud": -99.213794, "horario": "De 09:00 a 19:00" }, "geometry": { "type": "Point", "coordinates": [ -99.213794, 19.372826 ] } },
{ "type": "Feature", "properties": { "nombre": "Salvador Diaz Miron", "alcaldia": "Gustavo A. Madero", "direccion": "CALLE ORIENTE 155-BS/N 1 , N/D", "latitud": 19.488118, "longitud": -99.09937, "horario": "De 09:00 a 19:00" }, "geometry": { "type": "Point", "coordinates": [ -99.09937, 19.488118 ] } },
{ "type": "Feature", "properties": { "nombre": "San Andrés Ahuayucan", "alcaldia": "Xochimilco", "direccion": "CARRETERA XOCHIMILCO - SAN PABLOS/N 1 , Pueblo de San Andres Ahuayucan", "latitud": 19.224374, "longitud": -99.10889, "horario": "De 09:00 a 19:00" }, "geometry": { "type": "Point", "coordinates": [ -99.10889, 19.224374 ] } },
{ "type": "Feature", "properties": { "nombre": "San Andrés Tetepilco", "alcaldia": "Iztapalapa", "direccion": "EJE 1 ORIENTE, AV. ANDRES MOLINA ENRIQUEZS/N 1 , N/D", "latitud": 19.368901, "longitud": -99.1309, "horario": "De 09:00 a 19:00" }, "geometry": { "type": "Point", "coordinates": [ -99.1309, 19.368901 ] } },
{ "type": "Feature", "properties": { "nombre": "San Bartolomé Xicomulco", "alcaldia": "Milpa Alta", "direccion": "AVENIDA 5 DE MAYO ORIENTE S/N , SAN BARTOLOME XICOMULCO (PUEBLO)", "latitud": 19.206866, "longitud": -99.071139, "horario": "De 09:00 a 19:00" }, "geometry": { "type": "Point", "coordinates": [ -99.071139, 19.206866 ] } },
{ "type": "Feature", "properties": { "nombre": "San Bernabé Ocotepec-Oasis", "alcaldia": "La Magdalena Contreras", "direccion": "Calle Soledad s/n 1 , Pueblo de San Bernabe Ocotepec", "latitud": 19.308434, "longitud": -99.256103, "horario": "De 09:00 a 19:00" }, "geometry": { "type": "Point", "coordinates": [ -99.256103, 19.308434 ] } },
{ "type": "Feature", "properties": { "nombre": "San Felipe De Jesús", "alcaldia": "Gustavo A. Madero", "direccion": "AVENIDA LEON DE LOS ALDAMASS/N 1 , N/D", "latitud": 19.500881, "longitud": -99.074265, "horario": "De 09:00 a 19:00" }, "geometry": { "type": "Point", "coordinates": [ -99.074265, 19.500881 ] } },
{ "type": "Feature", "properties": { "nombre": "San Felipe De Jesús Ii", "alcaldia": "Gustavo A. Madero", "direccion": "Tamazula s/n 1 , SAN FELIPE DE JESUS", "latitud": 19.493115, "longitud": -99.076738, "horario": "De 09:00 a 19:00" }, "geometry": { "type": "Point", "coordinates": [ -99.076738, 19.493115 ] } },
{ "type": "Feature", "properties": { "nombre": "San Francisco Tlalnepantla", "alcaldia": "Xochimilco", "direccion": "PROLONGACION 16 DE SEPTIEMBRE S/N S/N , SAN FRANCISCO TLALNEPANTLA (PUEBLO)", "latitud": 19.203271, "longitud": -99.129225, "horario": "De 09:00 a 19:00" }, "geometry": { "type": "Point", "coordinates": [ -99.129225, 19.203271 ] } },
{ "type": "Feature", "properties": { "nombre": "San Francisco Tultenco", "alcaldia": "Cuauhtémoc", "direccion": "SAN FRANCISCO TULTENCO 41 , PAULINO NAVARRO", "latitud": 19.410929, "longitud": -99.12876, "horario": "De 09:00 a 19:00" }, "geometry": { "type": "Point", "coordinates": [ -99.12876, 19.410929 ] } },
{ "type": "Feature", "properties": { "nombre": "San Gregorio Atlapulco", "alcaldia": "Xochimilco", "direccion": "ENTRE LAS CALLES AGUSTIN MELGAR Y PROLONGACION AGUSTIN MELGA S/N , SAN GREGORIO ATLAPULCO (PUEBLO)", "latitud": 19.256314, "longitud": -99.060836, "horario": "De 09:00 a 19:00" }, "geometry": { "type": "Point", "coordinates": [ -99.060836, 19.256314 ] } },
{ "type": "Feature", "properties": { "nombre": "San José", "alcaldia": "Tláhuac", "direccion": "Calle Agustín Lara s/n 1 , San José", "latitud": 19.276049, "longitud": -98.993618, "horario": "De 09:00 a 19:00" }, "geometry": { "type": "Point", "coordinates": [ -98.993618, 19.276049 ] } },
{ "type": "Feature", "properties": { "nombre": "San Juan Ixtayopan", "alcaldia": "Tláhuac", "direccion": "Calle Lázaro Cárdenas s/n 1 , LA ASUNCION", "latitud": 19.244137, "longitud": -98.994319, "horario": "De 09:00 a 19:00" }, "geometry": { "type": "Point", "coordinates": [ -98.994319, 19.244137 ] } },
{ "type": "Feature", "properties": { "nombre": "San Juan Joya", "alcaldia": "Iztapalapa", "direccion": "AGUSTIN DE ITURBIDES/N 1 , San Juan Joya", "latitud": 19.335982, "longitud": -99.06718, "horario": "De 09:00 a 19:00" }, "geometry": { "type": "Point", "coordinates": [ -99.06718, 19.335982 ] } },
{ "type": "Feature", "properties": { "nombre": "San Juan Tepenahuac", "alcaldia": "Milpa Alta", "direccion": "Calle Morelos s/n 1 , N/D", "latitud": 19.18721, "longitud": -98.994131, "horario": "De 09:00 a 19:00" }, "geometry": { "type": "Point", "coordinates": [ -98.994131, 19.18721 ] } },
{ "type": "Feature", "properties": { "nombre": "San Lorenzo Atemoaya", "alcaldia": "Xochimilco", "direccion": "Calle Miguel Hidalgo 4 1 , N/D", "latitud": 19.244467, "longitud": -99.101462, "horario": "De 09:00 a 19:00" }, "geometry": { "type": "Point", "coordinates": [ -99.101462, 19.244467 ] } },
{ "type": "Feature", "properties": { "nombre": "San Lorenzo Huipulco", "alcaldia": "Tlalpan", "direccion": "Calzada de Tlalpan s/n 1 , N/D", "latitud": 19.30104, "longitud": -99.147126, "horario": "De 09:00 a 19:00" }, "geometry": { "type": "Point", "coordinates": [ -99.147126, 19.30104 ] } },
{ "type": "Feature", "properties": { "nombre": "San Lorenzo Tezonco", "alcaldia": "Iztapalapa", "direccion": "AVENIDA TLAHUAC (CALZADA MEXICO-TULYEHUALCO)S/N 1 , N/D", "latitud": 19.306375, "longitud": -99.064823, "horario": "De 09:00 a 19:00" }, "geometry": { "type": "Point", "coordinates": [ -99.064823, 19.306375 ] } },
{ "type": "Feature", "properties": { "nombre": "San Lorenzo Tlacoyucan", "alcaldia": "Milpa Alta", "direccion": "Calle Constitución s/n 1 , N/D", "latitud": 19.177555, "longitud": -99.030198, "horario": "De 09:00 a 19:00" }, "geometry": { "type": "Point", "coordinates": [ -99.030198, 19.177555 ] } },
{ "type": "Feature", "properties": { "nombre": "San Lucas Xochimanca", "alcaldia": "Xochimilco", "direccion": "AVENIDA ACUEDUCTO S/N , SAN LUCAS XOCHIMANCA (PUEBLO)", "latitud": 19.244316, "longitud": -99.114246, "horario": "De 09:00 a 19:00" }, "geometry": { "type": "Point", "coordinates": [ -99.114246, 19.244316 ] } },
{ "type": "Feature", "properties": { "nombre": "San Luis Tlaxialtemalco", "alcaldia": "Xochimilco", "direccion": "Acueducto S/N , SAN LUIS TLAXIALTEMALCO (PUEBLO)", "latitud": 19.255872, "longitud": -99.035556, "horario": "De 09:00 a 19:00" }, "geometry": { "type": "Point", "coordinates": [ -99.035556, 19.255872 ] } },
{ "type": "Feature", "properties": { "nombre": "San Marcos", "alcaldia": "Xochimilco", "direccion": "Calle Olmos s/n 1 , San Marcos Norte", "latitud": 19.270098, "longitud": -99.111788, "horario": "De 09:00 a 19:00" }, "geometry": { "type": "Point", "coordinates": [ -99.111788, 19.270098 ] } },
{ "type": "Feature", "properties": { "nombre": "San Miguel", "alcaldia": "Tlalpan", "direccion": "CARRETERA MEXICO AL AJUSCO, AV. MIGUEL HIDALGO642 1 , N/D", "latitud": 19.228858, "longitud": -99.195116, "horario": "De 09:00 a 19:00" }, "geometry": { "type": "Point", "coordinates": [ -99.195116, 19.228858 ] } },
{ "type": "Feature", "properties": { "nombre": "San Miguel Amantla", "alcaldia": "Azcapotzalco", "direccion": "AVENIDA MORELOS 163 , SAN MIGUEL AMANTLA", "latitud": 19.475268, "longitud": -99.204372, "horario": "De 09:00 a 19:00" }, "geometry": { "type": "Point", "coordinates": [ -99.204372, 19.475268 ] } },
{ "type": "Feature", "properties": { "nombre": "San Miguel Teotongo", "alcaldia": "Iztapalapa", "direccion": "Av del Paraiso S/N , SAN MIGUEL TEOTONGO", "latitud": 19.340401, "longitud": -98.992654, "horario": "De 09:00 a 19:00" }, "geometry": { "type": "Point", "coordinates": [ -98.992654, 19.340401 ] } },
{ "type": "Feature", "properties": { "nombre": "San Nicolás Ii", "alcaldia": "Tlalpan", "direccion": "Plan de la máquina s/n , San Nicolas II", "latitud": 19.267680096036269, "longitud": -99.237647882589087, "horario": "De 09:00 a 19:00" }, "geometry": { "type": "Point", "coordinates": [ -99.237647882589087, 19.267680096036269 ] } },
{ "type": "Feature", "properties": { "nombre": "San Nicolás Tetelco", "alcaldia": "Tláhuac", "direccion": "Avenida Emiliano Zapata, mz 248 lt 24 1 , N/D", "latitud": 19.2177, "longitud": -98.972458, "horario": "De 09:00 a 19:00" }, "geometry": { "type": "Point", "coordinates": [ -98.972458, 19.2177 ] } },
{ "type": "Feature", "properties": { "nombre": "San Pablo Oztotepec", "alcaldia": "Milpa Alta", "direccion": "Calle Emiliano Zapata s/n 1 , N/D", "latitud": 19.183256, "longitud": -99.075198, "horario": "De 09:00 a 19:00" }, "geometry": { "type": "Point", "coordinates": [ -99.075198, 19.183256 ] } },
{ "type": "Feature", "properties": { "nombre": "San Pedro Atocpan", "alcaldia": "Milpa Alta", "direccion": "CALLE ATZAYACATL Y GUADALUPE VICTORIA S/N , SAN PEDRO ACTOPAN", "latitud": 19.202638, "longitud": -99.052149, "horario": "De 09:00 a 19:00" }, "geometry": { "type": "Point", "coordinates": [ -99.052149, 19.202638 ] } },
{ "type": "Feature", "properties": { "nombre": "San Pedro Xalpa", "alcaldia": "Azcapotzalco", "direccion": "Av Hidalgo 15 , San Pedro Xalpa", "latitud": 19.484135, "longitud": -99.209489, "horario": "De 09:00 a 19:00" }, "geometry": { "type": "Point", "coordinates": [ -99.209489, 19.484135 ] } },
{ "type": "Feature", "properties": { "nombre": "San Salvador Cuauhtenco", "alcaldia": "Milpa Alta", "direccion": "EMILIANO ZAPATA S/N , SAN SALVADOR CUAUHTENCO (PUEBLO)", "latitud": 19.193876, "longitud": -99.091524, "horario": "De 09:00 a 19:00" }, "geometry": { "type": "Point", "coordinates": [ -99.091524, 19.193876 ] } },
{ "type": "Feature", "properties": { "nombre": "Santa Ana", "alcaldia": "Coyoacán", "direccion": "AVENIDA SANTA ANA Y EJE 3 ORIENTE, CARLOTA ARMERO S/N , CTM VI CULHUACAN", "latitud": 19.3285, "longitud": -99.114138, "horario": "De 09:00 a 19:00" }, "geometry": { "type": "Point", "coordinates": [ -99.114138, 19.3285 ] } },
{ "type": "Feature", "properties": { "nombre": "Santa Ana Tlacotenco", "alcaldia": "Milpa Alta", "direccion": "PRIVADA OLIMPICAS/N 1 , Santa Ana Tlacotenco", "latitud": 19.177656, "longitud": -99.003197, "horario": "De 09:00 a 19:00" }, "geometry": { "type": "Point", "coordinates": [ -99.003197, 19.177656 ] } },
{ "type": "Feature", "properties": { "nombre": "Santa Anita", "alcaldia": "Iztacalco", "direccion": "AVENIDA CONGRESO DE LA UNIONS/N 1 , N/D", "latitud": 19.403819, "longitud": -99.121531, "horario": "De 09:00 a 19:00" }, "geometry": { "type": "Point", "coordinates": [ -99.121531, 19.403819 ] } },
{ "type": "Feature", "properties": { "nombre": "Santa Catarina", "alcaldia": "Tláhuac", "direccion": "Calle Tlatilco s/n 1 , N/D", "latitud": 19.318963, "longitud": -98.96222, "horario": "De 09:00 a 19:00" }, "geometry": { "type": "Point", "coordinates": [ -98.96222, 19.318963 ] } },
{ "type": "Feature", "properties": { "nombre": "Santa Cecilia", "alcaldia": "Xochimilco", "direccion": "FRANCISCO SARABIA S/N , SANTA CECILIA TEPETLAPA (PUEBLO)", "latitud": 19.216107, "longitud": -99.099106, "horario": "De 09:00 a 19:00" }, "geometry": { "type": "Point", "coordinates": [ -99.099106, 19.216107 ] } },
{ "type": "Feature", "properties": { "nombre": "Santa Cruz Meyehualco", "alcaldia": "Iztapalapa", "direccion": "CALLE 55 S/N , SANTA CRUZ MEYEHUALCO", "latitud": 19.348708, "longitud": -99.044523, "horario": "De 09:00 a 19:00" }, "geometry": { "type": "Point", "coordinates": [ -99.044523, 19.348708 ] } },
{ "type": "Feature", "properties": { "nombre": "Santa Fe", "alcaldia": "Álvaro Obregón", "direccion": "CORREGIDORA S/N , PUEBLO DE SANTA FE", "latitud": 19.382712, "longitud": -99.240346, "horario": "De 09:00 a 19:00" }, "geometry": { "type": "Point", "coordinates": [ -99.240346, 19.382712 ] } },
{ "type": "Feature", "properties": { "nombre": "Santa Lucia", "alcaldia": "Álvaro Obregón", "direccion": "Av Santa Lucia 36 , COLINAS DEL SUR", "latitud": 19.368733, "longitud": -99.222838, "horario": "De 09:00 a 19:00" }, "geometry": { "type": "Point", "coordinates": [ -99.222838, 19.368733 ] } },
{ "type": "Feature", "properties": { "nombre": "Santa María Aztahuacán Ii", "alcaldia": "Iztapalapa", "direccion": "AQUILES SERDANS/N 1 , Santa Maria Aztahuacan", "latitud": 19.353851, "longitud": -99.035505, "horario": "De 09:00 a 19:00" }, "geometry": { "type": "Point", "coordinates": [ -99.035505, 19.353851 ] } },
{ "type": "Feature", "properties": { "nombre": "Santa Maria Ticoman", "alcaldia": "Gustavo A. Madero", "direccion": "Calle 18 de marzo s/n 1 , N/D", "latitud": 19.516494, "longitud": -99.133333, "horario": "De 09:00 a 19:00" }, "geometry": { "type": "Point", "coordinates": [ -99.133333, 19.516494 ] } },
{ "type": "Feature", "properties": { "nombre": "Santa María Tomatlán", "alcaldia": "Iztapalapa", "direccion": "Calle Canal Nacional s/n 1 , N/D", "latitud": 19.32212, "longitud": -99.099932, "horario": "De 09:00 a 19:00" }, "geometry": { "type": "Point", "coordinates": [ -99.099932, 19.32212 ] } },
{ "type": "Feature", "properties": { "nombre": "Santa Rosa", "alcaldia": "Álvaro Obregón", "direccion": "Rinconada de Jesús s/n 1 , PUEBLO DE SANTA ROSA XOCHIAC", "latitud": 19.325972, "longitud": -99.282208, "horario": "De 09:00 a 19:00" }, "geometry": { "type": "Point", "coordinates": [ -99.282208, 19.325972 ] } },
{ "type": "Feature", "properties": { "nombre": "Santiago Atzacoalco", "alcaldia": "Gustavo A. Madero", "direccion": "CABO FINISTERRES/N 1 , Puebloo Santiago Atzacoalco", "latitud": 19.498347, "longitud": -99.097498, "horario": "De 09:00 a 19:00" }, "geometry": { "type": "Point", "coordinates": [ -99.097498, 19.498347 ] } },
{ "type": "Feature", "properties": { "nombre": "Santiago Tepalcatlalpan", "alcaldia": "Xochimilco", "direccion": "CAMINO A LAS CANTERAS 35 , SANTIAGO TEPALCATLALPAN (PUEBLO)", "latitud": 19.247728, "longitud": -99.127522, "horario": "De 09:00 a 19:00" }, "geometry": { "type": "Point", "coordinates": [ -99.127522, 19.247728 ] } },
{ "type": "Feature", "properties": { "nombre": "Santiago Tulyehualco", "alcaldia": "Xochimilco", "direccion": "AVENIDA IGNACIO ZARAGOZA S/N , SANTIAGO TULYEHUALCO (CENTRO)", "latitud": 19.254388, "longitud": -99.011498, "horario": "De 09:00 a 19:00" }, "geometry": { "type": "Point", "coordinates": [ -99.011498, 19.254388 ] } },
{ "type": "Feature", "properties": { "nombre": "Selene", "alcaldia": "Tláhuac", "direccion": "ESTANISLAO RAMIREZ RUIZS/N 1 , N/D", "latitud": 19.295574, "longitud": -98.997882, "horario": "De 09:00 a 19:00" }, "geometry": { "type": "Point", "coordinates": [ -98.997882, 19.295574 ] } },
{ "type": "Feature", "properties": { "nombre": "Sepi", "alcaldia": "Cuauhtémoc", "direccion": "Nezahualcóyotl 29 , Centro", "latitud": 19.425583, "longitud": -99.14096, "horario": "De 09:00 a 19:00" }, "geometry": { "type": "Point", "coordinates": [ -99.14096, 19.425583 ] } },
{ "type": "Feature", "properties": { "nombre": "Tablas De San Agustín", "alcaldia": "Gustavo A. Madero", "direccion": "Calle Oriente 97 s/n 1 , N/D", "latitud": 19.46345, "longitud": -99.113644, "horario": "De 09:00 a 19:00" }, "geometry": { "type": "Point", "coordinates": [ -99.113644, 19.46345 ] } },
{ "type": "Feature", "properties": { "nombre": "Taxqueña", "alcaldia": "Coyoacán", "direccion": "Calzada de Tlalpan 2130 , Campestre Churubusco", "latitud": 19.342134, "longitud": -99.143361, "horario": "De 09:00 a 19:00" }, "geometry": { "type": "Point", "coordinates": [ -99.143361, 19.342134 ] } },
{ "type": "Feature", "properties": { "nombre": "Tepalcates", "alcaldia": "Iztapalapa", "direccion": "PRIMAVERA S/N , TEPALCATES", "latitud": 19.39291, "longitud": -99.0555, "horario": "De 09:00 a 19:00" }, "geometry": { "type": "Point", "coordinates": [ -99.0555, 19.39291 ] } },
{ "type": "Feature", "properties": { "nombre": "Tepantongo", "alcaldia": "Azcapotzalco", "direccion": "Calle Tepantongo s/n 1 , N/D", "latitud": 19.489728, "longitud": -99.186042, "horario": "De 09:00 a 19:00" }, "geometry": { "type": "Point", "coordinates": [ -99.186042, 19.489728 ] } },
{ "type": "Feature", "properties": { "nombre": "Tepeximilpa", "alcaldia": "Tlalpan", "direccion": "Calle Tequistlateco s/n 1 , San Juan Tepeximilpa", "latitud": 19.272822, "longitud": -99.190473, "horario": "De 09:00 a 19:00" }, "geometry": { "type": "Point", "coordinates": [ -99.190473, 19.272822 ] } },
{ "type": "Feature", "properties": { "nombre": "Tepito Morelos", "alcaldia": "Venustiano Carranza", "direccion": "Peluqueros 2 , MORELOS", "latitud": 19.447842, "longitud": -99.125678, "horario": "De 09:00 a 19:00" }, "geometry": { "type": "Point", "coordinates": [ -99.125678, 19.447842 ] } },
{ "type": "Feature", "properties": { "nombre": "Tetecón", "alcaldia": "Iztapalapa", "direccion": "Capulines 54 22, Buenavista", "latitud": 19.3224, "longitud": -99.029, "horario": "De 09:00 a 19:00" }, "geometry": { "type": "Point", "coordinates": [ -99.029, 19.3224 ] } },
{ "type": "Feature", "properties": { "nombre": "Tezontle", "alcaldia": "Iztacalco", "direccion": "AVENIDA CANAL DE TEZONTLE Y EJE 3 ORIENTE FRANCISCO DEL PASO Y TRONCOSO (BAJO PUENTE)S/N 1 , PICOS IZTACALCO 1B", "latitud": 19.388339, "longitud": -99.112376, "horario": "De 09:00 a 19:00" }, "geometry": { "type": "Point", "coordinates": [ -99.112376, 19.388339 ] } },
{ "type": "Feature", "properties": { "nombre": "Tierra Blanca", "alcaldia": "Tláhuac", "direccion": "Calle Sauces s/n 1 , N/D", "latitud": 19.239282, "longitud": -99.005133, "horario": "De 09:00 a 19:00" }, "geometry": { "type": "Point", "coordinates": [ -99.005133, 19.239282 ] } },
{ "type": "Feature", "properties": { "nombre": "Tierra Unida", "alcaldia": "La Magdalena Contreras", "direccion": "Andador Principal s/n 1 , N/D", "latitud": 19.302273, "longitud": -99.270061, "horario": "De 09:00 a 19:00" }, "geometry": { "type": "Point", "coordinates": [ -99.270061, 19.302273 ] } },
{ "type": "Feature", "properties": { "nombre": "Tierra Y Libertad", "alcaldia": "Iztapalapa", "direccion": "ENRIQUE RAMBALS/N 1 , AMPLIACION EMILIANO ZAPATA", "latitud": 19.338526, "longitud": -98.978817, "horario": "De 09:00 a 19:00" }, "geometry": { "type": "Point", "coordinates": [ -98.978817, 19.338526 ] } },
{ "type": "Feature", "properties": { "nombre": "Tixtla", "alcaldia": "Gustavo A. Madero", "direccion": "Calle Cabo San Lucas mz. 14 B lt. 5 1 , N/D", "latitud": 19.500859, "longitud": -99.100442, "horario": "De 09:00 a 19:00" }, "geometry": { "type": "Point", "coordinates": [ -99.100442, 19.500859 ] } },
{ "type": "Feature", "properties": { "nombre": "Tizimín", "alcaldia": "Tlalpan", "direccion": "Tizimin 102 , HEROES DE PADIERNA", "latitud": 19.289542, "longitud": -99.216457, "horario": "De 09:00 a 19:00" }, "geometry": { "type": "Point", "coordinates": [ -99.216457, 19.289542 ] } },
{ "type": "Feature", "properties": { "nombre": "Tlacopan", "alcaldia": "Miguel Hidalgo", "direccion": "CALZADA MEXICO TACUBA Y AV. AQUILES SERDANS/N 1 , N/D", "latitud": 19.460063, "longitud": -99.189819, "horario": "De 09:00 a 19:00" }, "geometry": { "type": "Point", "coordinates": [ -99.189819, 19.460063 ] } },
{ "type": "Feature", "properties": { "nombre": "Tláloc", "alcaldia": "Iztacalco", "direccion": "Calle 5 Entre Calle Prosperi Eje 4 Oriente Canal, Agricola Pantitlan", "latitud": 19.420201155496599, "longitud": -99.060019473179096, "horario": "De 09:00 a 19:00" }, "geometry": { "type": "Point", "coordinates": [ -99.060019473179096, 19.420201155496599 ] } },
{ "type": "Feature", "properties": { "nombre": "Tlalpexco", "alcaldia": "Gustavo A. Madero", "direccion": "SAUCES 5 , Tlalpexco", "latitud": 19.544812, "longitud": -99.125766, "horario": "De 09:00 a 19:00" }, "geometry": { "type": "Point", "coordinates": [ -99.125766, 19.544812 ] } },
{ "type": "Feature", "properties": { "nombre": "Tlaltenco", "alcaldia": "Tláhuac", "direccion": "MONTES DE LAS CORDILLERAS S/N , OJO DE AGUA", "latitud": 19.291073, "longitud": -99.0093, "horario": "De 09:00 a 19:00" }, "geometry": { "type": "Point", "coordinates": [ -99.0093, 19.291073 ] } },
{ "type": "Feature", "properties": { "nombre": "Tokio", "alcaldia": "Gustavo A. Madero", "direccion": "Calle Tokio s/n 1 , N/D", "latitud": 19.576504, "longitud": -99.134983, "horario": "De 09:00 a 19:00" }, "geometry": { "type": "Point", "coordinates": [ -99.134983, 19.576504 ] } },
{ "type": "Feature", "properties": { "nombre": "Tolteca", "alcaldia": "Álvaro Obregón", "direccion": "Eje 5 poniente, Escuadron 201 s/n 1 , TOLTECA", "latitud": 19.387986, "longitud": -99.199883, "horario": "De 09:00 a 20:00" }, "geometry": { "type": "Point", "coordinates": [ -99.199883, 19.387986 ] } },
{ "type": "Feature", "properties": { "nombre": "Topilejo", "alcaldia": "Tlalpan", "direccion": "INDEPENDENCIAS/N 1 , N/D", "latitud": 19.198648, "longitud": -99.141378, "horario": "De 09:00 a 19:00" }, "geometry": { "type": "Point", "coordinates": [ -99.141378, 19.198648 ] } },
{ "type": "Feature", "properties": { "nombre": "Topiltzin", "alcaldia": "Coyoacán", "direccion": "MIXTECAS S/N , AJUSCO", "latitud": 19.322591, "longitud": -99.158161, "horario": "De 09:00 a 19:00" }, "geometry": { "type": "Point", "coordinates": [ -99.158161, 19.322591 ] } },
{ "type": "Feature", "properties": { "nombre": "Tres Estrellas", "alcaldia": "Gustavo A. Madero", "direccion": "Avenida Tesoro s/n 1 , N/D", "latitud": 19.471332, "longitud": -99.11102, "horario": "De 09:00 a 19:00" }, "geometry": { "type": "Point", "coordinates": [ -99.11102, 19.471332 ] } },
{ "type": "Feature", "properties": { "nombre": "Úrsulo Galván", "alcaldia": "Iztapalapa", "direccion": "Úrsulo Galván 22 , Hank Gonzalez", "latitud": 19.337243, "longitud": -99.04647, "horario": "De 09:00 a 19:00" }, "geometry": { "type": "Point", "coordinates": [ -99.04647, 19.337243 ] } },
{ "type": "Feature", "properties": { "nombre": "Valle De Luces", "alcaldia": "Iztapalapa", "direccion": "VALLE DEL PARAISO 18 , Valle de Luces", "latitud": 19.338014, "longitud": -99.098174, "horario": "De 09:00 a 19:00" }, "geometry": { "type": "Point", "coordinates": [ -99.098174, 19.338014 ] } },
{ "type": "Feature", "properties": { "nombre": "Vasco De Quiroga", "alcaldia": "Gustavo A. Madero", "direccion": "EJE 3 ORIENTE ING. EDUARDO MOLINA ENRIQUEZS/N 1 , VASCO DE QUIROGA", "latitud": 19.495844, "longitud": -99.090721, "horario": "De 09:00 a 19:00" }, "geometry": { "type": "Point", "coordinates": [ -99.090721, 19.495844 ] } },
{ "type": "Feature", "properties": { "nombre": "Viaducto", "alcaldia": "Venustiano Carranza", "direccion": "VIADUCTO RIO DE LA PIEDAD S/N 1 , JARDIN BALBUENA", "latitud": 19.406414, "longitud": -99.11259, "horario": "De 09:00 a 19:00" }, "geometry": { "type": "Point", "coordinates": [ -99.11259, 19.406414 ] } },
{ "type": "Feature", "properties": { "nombre": "Vicente Guerrero", "alcaldia": "Iztapalapa", "direccion": "ANILLO PERIFERICO CANAL DE SAN JUANS/N 1 , Unidad Vicente Guerrero", "latitud": 19.354876, "longitud": -99.059109, "horario": "De 09:00 a 19:00" }, "geometry": { "type": "Point", "coordinates": [ -99.059109, 19.354876 ] } },
{ "type": "Feature", "properties": { "nombre": "Villa Cid", "alcaldia": "Iztapalapa", "direccion": "VILLA CID S/N , DESARROLLO URBANO QUETZALCOATL", "latitud": 19.321683, "longitud": -99.042487, "horario": "De 09:00 a 19:00" }, "geometry": { "type": "Point", "coordinates": [ -99.042487, 19.321683 ] } },
{ "type": "Feature", "properties": { "nombre": "Villa De Aragón", "alcaldia": "Gustavo A. Madero", "direccion": "EJE 5 NORTE AV. 412S/N 1 , N/D", "latitud": 19.462824, "longitud": -99.058119, "horario": "De 09:00 a 19:00" }, "geometry": { "type": "Point", "coordinates": [ -99.058119, 19.462824 ] } },
{ "type": "Feature", "properties": { "nombre": "Villa Panamericana", "alcaldia": "Coyoacán", "direccion": "AVENIDA PANAMERICANA S/N , PEDREGAL DE CARRASCO", "latitud": 19.307772, "longitud": -99.173703, "horario": "De 09:00 a 19:00" }, "geometry": { "type": "Point", "coordinates": [ -99.173703, 19.307772 ] } },
{ "type": "Feature", "properties": { "nombre": "Virgilio Caballero", "alcaldia": "Azcapotzalco", "direccion": "RABAULS/N 1 , N/D", "latitud": 19.475691, "longitud": -99.179793, "horario": "De 09:00 a 19:00" }, "geometry": { "type": "Point", "coordinates": [ -99.179793, 19.475691 ] } },
{ "type": "Feature", "properties": { "nombre": "Vivero", "alcaldia": "Gustavo A. Madero", "direccion": "BLANCA ESTELA PAVON s/n , POBLADO CUAUTEPEC I Y II", "latitud": 19.562113, "longitud": -99.128298, "horario": "De 09:00 a 19:00" }, "geometry": { "type": "Point", "coordinates": [ -99.128298, 19.562113 ] } },
{ "type": "Feature", "properties": { "nombre": "Vivero Nezahualcóyotl", "alcaldia": "Xochimilco", "direccion": "Canal de Chalco s/n 1 , Cienega Grande", "latitud": 19.291359, "longitud": -99.077104, "horario": "De 09:00 a 19:00" }, "geometry": { "type": "Point", "coordinates": [ -99.077104, 19.291359 ] } },
{ "type": "Feature", "properties": { "nombre": "Xalli", "alcaldia": "Azcapotzalco", "direccion": "N/D 1 , N/D", "latitud": 19.464237, "longitud": -99.151945, "horario": "De 09:00 a 19:00" }, "geometry": { "type": "Point", "coordinates": [ -99.151945, 19.464237 ] } },
{ "type": "Feature", "properties": { "nombre": "Xaltipac", "alcaldia": "Milpa Alta", "direccion": "5 de Mayo S/N , Xaltipac", "latitud": 19.217081, "longitud": -98.988892, "horario": "De 09:00 a 19:00" }, "geometry": { "type": "Point", "coordinates": [ -98.988892, 19.217081 ] } },
{ "type": "Feature", "properties": { "nombre": "Xochinahuac", "alcaldia": "Azcapotzalco", "direccion": "AVENIDA BENITO JUAREZ S/N , SAN MARTIN XOCHINAHUAC", "latitud": 19.509864, "longitud": -99.189229, "horario": "De 09:00 a 19:00" }, "geometry": { "type": "Point", "coordinates": [ -99.189229, 19.509864 ] } },
{ "type": "Feature", "properties": { "nombre": "Xochitepec", "alcaldia": "Xochimilco", "direccion": "Calle Comercio 18 , Santa Cruz Xochitepec", "latitud": 19.25841, "longitud": -99.130702, "horario": "De 09:00 a 19:00" }, "geometry": { "type": "Point", "coordinates": [ -99.130702, 19.25841 ] } },
{ "type": "Feature", "properties": { "nombre": "Yancuic", "alcaldia": "Iztapalapa", "direccion": "PENDIENTEPENDIENTE 1 , LOS ANGELES", "latitud": 19.345913, "longitud": -99.065821, "horario": "De 09:00 a 19:00" }, "geometry": { "type": "Point", "coordinates": [ -99.065821, 19.345913 ] } },
{ "type": "Feature", "properties": { "nombre": "Yautlica", "alcaldia": "Iztapalapa", "direccion": "Av de las Torres S/N , Zona Rustica", "latitud": 19.333262, "longitud": -98.983934, "horario": "De 09:00 a 19:00" }, "geometry": { "type": "Point", "coordinates": [ -98.983934, 19.333262 ] } },
{ "type": "Feature", "properties": { "nombre": "Zacatepec", "alcaldia": "Iztapalapa", "direccion": "Calle Camino Real s/n 1 , Campestre Potrero", "latitud": 19.326209, "longitud": -98.973121, "horario": "De 09:00 a 19:00" }, "geometry": { "type": "Point", "coordinates": [ -98.973121, 19.326209 ] } },
{ "type": "Feature", "properties": { "nombre": "Zentlapatl", "alcaldia": "Cuajimalpa de Morelos", "direccion": "PUERTO ESCONDIDO 8 , ZENTLAPATL", "latitud": 19.355339, "longitud": -99.309464, "horario": "De 09:00 a 19:00" }, "geometry": { "type": "Point", "coordinates": [ -99.309464, 19.355339 ] } },
{ "type": "Feature", "properties": { "nombre": "Zona Rosa", "alcaldia": "Cuauhtémoc", "direccion": "LONDRES 154 , JUAREZ", "latitud": 19.424447, "longitud": -99.165463, "horario": "De 09:00 a 19:00" }, "geometry": { "type": "Point", "coordinates": [ -99.165463, 19.424447 ] } }
]
}
